stop_id,stop_code,stop_name,stop_lat,stop_lon,location_type,parent_station
PH-1,PH-1,PH-1,-8.088567160999958,-79.11528439299997,0,
PH-2,PH-2,PH-2,-8.086216578999938,-79.11448374999998,0,
PH-3,PH-3,PH-3,-8.082721302999971,-79.11349009099996,0,
PH-4,PH-4,PH-4,-8.081620313999963,-79.11505339599995,0,
PH-5,PH-5,PH-5,-8.081500006999931,-79.11849742999993,0,
PH-6,PH-6,PH-6,-8.079959947999953,-79.11854385999999,0,
PH-7,PH-7,PH-7,-8.076599353999939,-79.11767326799998,0,
PH-8,PH-8,PH-8,-8.073412712999925,-79.11836840099994,0,
PH-9,PH-9,PH-9,-8.07562121799998,-79.11903076799996,0,
PH-10,PH-10,PH-10,-8.078582479999966,-79.12047004799996,0,
PH-11,PH-11,PH-11,-8.081252405999976,-79.12269204899997,0,
PH-12,PH-12,PH-12,-8.086004042999946,-79.12228226299999,0,
PH-13,PH-13,PH-13,-8.089168056999938,-79.11972728499995,0,
PH-14,PH-14,PH-14,-8.091339645999938,-79.11790929799997,0,
PH-15,PH-15,PH-15,-8.097525218999976,-79.11067291199998,0,
PH-16,PH-16,PH-16,-8.09273066299994,-79.10534182099997,0,
PH-17,PH-17,PH-17,-8.086879929999952,-79.10008687199996,0,
PH-18,PH-18,PH-18,-8.067871327999967,-79.11168064099996,0,
PH-19,PH-19,PH-19,-8.070752393999953,-79.11305628299993,0,
PH-20,PH-20,PH-20,-8.073522572999934,-79.11437491199996,0,
PH-21,PH-21,PH-21,-8.075993920999963,-79.11541944699997,0,
PH-22,PH-22,PH-22,-8.079663466999932,-79.11661804699997,0,
PH-23,PH-23,PH-23,-8.09909530899995,-79.10935560599995,0,
PH-24,PH-24,PH-24,-8.10094139499995,-79.10676589299999,0,
PH-25,PH-25,PH-25,-8.086729528999967,-79.10010447199994,0,
PH-26,PH-26,PH-26,-8.092529403999947,-79.10558086199995,0,
PH-27,PH-27,PH-27,-8.097297543999957,-79.11052610599995,0,
PH-29,PH-29,PH-29,-8.089853381999944,-79.11891164099995,0,
PH-31,PH-31,PH-31,-8.08384470599998,-79.12301437399998,0,
PH-32,PH-32,PH-32,-8.081973465999965,-79.12234161699996,0,
PH-33,PH-33,PH-33,-8.082712539999932,-79.11958360499995,0,
PH-34,PH-34,PH-34,-8.081529627999942,-79.11842737199999,0,
PH-35,PH-35,PH-35,-8.081667466999932,-79.11495270399996,0,
PH-36,PH-36,PH-36,-8.082738354999947,-79.11353145799995,0,
PH-37,PH-37,PH-37,-8.085618383999929,-79.11436568999994,0,
PH-38,PH-38,PH-38,-8.088830171999973,-79.11538563199997,0,
PH-39,PH-39,PH-39,-8.078549686999963,-79.11644730299997,0,
PH-40,PH-40,PH-40,-8.07542462799995,-79.11534030899998,0,
PH-41,PH-41,PH-41,-8.072353120999935,-79.11569598099999,0,
PH-42,PH-42,PH-42,-8.068335735999938,-79.11697537299995,0,
PH-43,PH-43,PH-43,-8.067293656999937,-79.11506531599997,0,
PH-44,PH-44,PH-44,-8.067042654999966,-79.11196974299997,0,
PH-45,PH-45,PH-45,-8.100984399999959,-79.10656863499997,0,
PH-46,PH-46,PH-46,-8.098912497999947,-79.10948100499996,0,
PH-48,PH-48,PH-48,-8.091296693999936,-79.08465238399998,0,
PH-49,PH-49,PH-49,-8.09256690199993,-79.08031759499994,0,
PH-50,PH-50,PH-50,-8.09324458499998,-79.07655515599998,0,
PH-52,PH-52,PH-52,-8.098276669999962,-79.06872755899997,0,
PH-53,PH-53,PH-53,-8.09988021199996,-79.06482931499994,0,
PH-54,PH-54,PH-54,-8.100497136999934,-79.06164601099994,0,
PH-55,PH-55,PH-55,-8.10113107899997,-79.05747628999995,0,
PH-56,PH-56,PH-56,-8.102797746999954,-79.10285610599993,0,
PH-57,PH-57,PH-57,-8.104994757999975,-79.09963780599998,0,
PH-58,PH-58,PH-58,-8.10284844499995,-79.09889194699997,0,
PH-59,PH-59,PH-59,-8.099114086999975,-79.09911713699995,0,
PH-60,PH-60,PH-60,-8.095723907999968,-79.09863227999995,0,
PH-61,PH-61,PH-61,-8.09263870899997,-79.09784110799995,0,
PH-62,PH-62,PH-62,-8.08980476599993,-79.09707797699997,0,
PH-66,PH-66,PH-66,-8.099562964999961,-79.06497094699995,0,
PH-70,PH-70,PH-70,-8.09107912199994,-79.08464848999995,0,
PH-71,PH-71,PH-71,-8.089728503999936,-79.08858426899997,0,
PH-73,PH-73,PH-73,-8.08949923299997,-79.09702107499999,0,
PH-74,PH-74,PH-74,-8.09233897699994,-79.09777971199998,0,
PH-75,PH-75,PH-75,-8.095577412999944,-79.09863056899997,0,
PH-76,PH-76,PH-76,-8.098864313999968,-79.09911201999995,0,
PH-77,PH-77,PH-77,-8.102659941999946,-79.09894914799997,0,
PH-78,PH-78,PH-78,-8.105031005999933,-79.09942160399999,0,
PH-79,PH-79,PH-79,-8.102964639999925,-79.10240550399999,0,
PH-80,PH-80,PH-80,-8.088075354999944,-79.09449905199995,0,
PH-81,PH-81,PH-81,-8.088946455999974,-79.09164758199995,0,
PH-82,PH-82,PH-82,-8.08789726799995,-79.09440313699997,0,
PH-83,PH-83,PH-83,-8.09074884499995,-79.05268843599998,0,
PH-87,PH-87,PH-87,-8.089884114999961,-79.05387173899999,0,
PH-88,PH-88,PH-88,-8.08553911699994,-79.05264537999994,0,
PH-89,PH-89,PH-89,-8.017877189999979,-79.07173294299997,0,
PH-90,PH-90,PH-90,-8.015458947999946,-79.06916864599998,0,
PH-91,PH-91,PH-91,-8.016242750999936,-79.07186241899996,0,
PH-92,PH-92,PH-92,-8.02038672699996,-79.07077069799999,0,
PH-94,PH-94,PH-94,-8.026261640999962,-79.06852527999996,0,
PH-95,PH-95,PH-95,-8.029222567999966,-79.06751750799998,0,
PH-96,PH-96,PH-96,-8.03187974499997,-79.06669857199995,0,
PH-97,PH-97,PH-97,-8.034070396999937,-79.06654623699995,0,
PH-98,PH-98,PH-98,-8.034831658999963,-79.06890483399997,0,
PH-99,PH-99,PH-99,-8.036495465999963,-79.07073530399998,0,
PH-100,PH-100,PH-100,-8.036495642999967,-79.06709197699996,0,
PH-101,PH-101,PH-101,-8.005318773999932,-79.07090293399995,0,
PH-102,PH-102,PH-102,-7.992984294999928,-79.07479910399996,0,
PH-103,PH-103,PH-103,-7.997533597999961,-79.07336116199997,0,
PH-104,PH-104,PH-104,-8.001245368999946,-79.07221029399994,0,
PH-105,PH-105,PH-105,-8.011867977999941,-79.06882948699996,0,
PH-106,PH-106,PH-106,-8.014227404999929,-79.06630543999995,0,
PH-107,PH-107,PH-107,-8.016140201999974,-79.07267767399998,0,
PH-108,PH-108,PH-108,-8.035418149999941,-79.06373928299996,0,
PH-109,PH-109,PH-109,-8.015994963999958,-79.06730783499995,0,
PH-110,PH-110,PH-110,-8.019670578999978,-79.06616018899996,0,
PH-111,PH-111,PH-111,-8.023428046999982,-79.06489486899994,0,
PH-112,PH-112,PH-112,-8.027370369999971,-79.06365361099995,0,
PH-113,PH-113,PH-113,-8.03061377499995,-79.06265361199996,0,
PH-114,PH-114,PH-114,-8.034263710999937,-79.06139146299995,0,
PH-115,PH-115,PH-115,-8.03765066699998,-79.06020413399995,0,
PH-116,PH-116,PH-116,-8.04253095599995,-79.05875343099996,0,
PH-117,PH-117,PH-117,-8.015377413999943,-79.06913275199997,0,
PH-118,PH-118,PH-118,-8.016245702999981,-79.07209718599995,0,
PH-120,PH-120,PH-120,-8.051213902999962,-79.08442137599997,0,
PH-121,PH-121,PH-121,-8.05257557699997,-79.08178814799999,0,
PH-122,PH-122,PH-122,-8.045365467999943,-79.06686885599999,0,
PH-123,PH-123,PH-123,-8.02030874999997,-79.07065638399996,0,
PH-124,PH-124,PH-124,-8.026253679999968,-79.06838546899996,0,
PH-125,PH-125,PH-125,-8.037356776999957,-79.06950060399998,0,
PH-126,PH-126,PH-126,-8.022958876999951,-79.06964527599996,0,
PH-127,PH-127,PH-127,-8.035540591999961,-79.06394004699996,0,
PH-128,PH-128,PH-128,-8.015553343999954,-79.06737390899997,0,
PH-129,PH-129,PH-129,-8.019157980999978,-79.06613360799997,0,
PH-130,PH-130,PH-130,-8.022955933999981,-79.06492241799998,0,
PH-131,PH-131,PH-131,-8.026962580999964,-79.06360599699997,0,
PH-132,PH-132,PH-132,-8.030471451999972,-79.06247924799999,0,
PH-133,PH-133,PH-133,-8.03448865699994,-79.06114030499998,0,
PH-134,PH-134,PH-134,-8.03799254699993,-79.05996179499994,0,
PH-135,PH-135,PH-135,-8.04214701099994,-79.05865699499998,0,
PH-136,PH-136,PH-136,-7.99291575999996,-79.07457827499996,0,
PH-137,PH-137,PH-137,-7.997649974999945,-79.07307188899995,0,
PH-138,PH-138,PH-138,-8.001605496999957,-79.07188610699995,0,
PH-140,PH-140,PH-140,-8.011756354999932,-79.06861547899996,0,
PH-141,PH-141,PH-141,-8.014494756999966,-79.06614844399996,0,
PH-142,PH-142,PH-142,-8.016078457999981,-79.07279805499996,0,
PH-143,PH-143,PH-143,-8.029466954999975,-79.06734866899995,0,
PH-144,PH-144,PH-144,-8.032371646999934,-79.06639381799994,0,
PH-145,PH-145,PH-145,-8.034347817999958,-79.06719094699997,0,
PH-146,PH-146,PH-146,-8.034891088999927,-79.06911406599994,0,
PH-147,PH-147,PH-147,-8.036447704999944,-79.07084894499997,0,
PH-148,PH-148,PH-148,-8.038176097999951,-79.07186735299996,0,
PH-149,PH-149,PH-149,-8.038071274999936,-79.07176004999997,0,
PH-150,PH-150,PH-150,-8.037301528999933,-79.06959854199994,0,
PH-151,PH-151,PH-151,-8.03649506499994,-79.06685939399995,0,
PH-152,PH-152,PH-152,-8.044734391999953,-79.07314291999995,0,
PH-153,PH-153,PH-153,-8.044900354999982,-79.07306313899994,0,
PH-154,PH-154,PH-154,-8.041989118999936,-79.07554011699995,0,
PH-155,PH-155,PH-155,-8.041938195999933,-79.07551558699998,0,
PH-156,PH-156,PH-156,-8.040465964999953,-79.07295514299994,0,
PH-157,PH-157,PH-157,-8.04045786699993,-79.07306173499995,0,
PH-158,PH-158,PH-158,-8.038354669999933,-79.07251937199999,0,
PH-159,PH-159,PH-159,-8.038365020999947,-79.07241323099998,0,
PH-160,PH-160,PH-160,-8.03100133199996,-79.06168216199995,0,
PH-161,PH-161,PH-161,-8.03110513799993,-79.06166362799996,0,
PH-162,PH-162,PH-162,-8.029712684999936,-79.05892507799996,0,
PH-163,PH-163,PH-163,-8.029743114999974,-79.05904760699997,0,
PH-164,PH-164,PH-164,-8.09993652299994,-79.05686861899994,0,
PH-165,PH-165,PH-165,-8.099922971999945,-79.05681948499995,0,
PH-166,PH-166,PH-166,-8.096382071999926,-79.05560559499997,0,
PH-167,PH-167,PH-167,-8.092857829999957,-79.05459013999996,0,
PH-168,PH-168,PH-168,-8.092896826999947,-79.05463486199994,0,
PAT-1,PAT-1,PAT-1,-8.051135145999979,-79.00134169099994,0,
PAT-2,PAT-2,PAT-2,-8.054767051999931,-79.00251294599997,0,
PAT-3,PAT-3,PAT-3,-8.058287795999945,-79.00359419899996,0,
PAT-4,PAT-4,PAT-4,-8.061797411999976,-79.00463073799995,0,
PAT-5,PAT-5,PAT-5,-8.06304146499997,-79.00756391899995,0,
PAT-6,PAT-6,PAT-6,-8.06129088299997,-79.00665610099998,0,
PAT-7,PAT-7,PAT-7,-8.06075878799993,-79.00837496499997,0,
PAT-8,PAT-8,PAT-8,-8.064516799999979,-79.00341896099997,0,
PAT-9,PAT-9,PAT-9,-8.06459741499998,-79.00344010699996,0,
PAT-10,PAT-10,PAT-10,-8.064585597999951,-79.00639285099999,0,
PAT-11,PAT-11,PAT-11,-8.064537413999972,-79.00640028799995,0,
PAT-12,PAT-12,PAT-12,-8.061838597999952,-79.00458590899996,0,
PAT-13,PAT-13,PAT-13,-8.05832701099996,-79.00349920799994,0,
PAT-14,PAT-14,PAT-14,-8.054791157999944,-79.00246928399997,0,
PAT-15,PAT-15,PAT-15,-8.051215774999946,-79.00127847299996,0,
PAT-16,PAT-16,PAT-16,-8.04801340299997,-79.00023069099996,0,
PAT-17,PAT-17,PAT-17,-8.047644108999975,-79.00003370099995,0,
PAT-18,PAT-18,PAT-18,-8.067626188999952,-79.01298216299995,0,
PAT-19,PAT-19,PAT-19,-8.067657847999953,-79.01299337499995,0,
PAT-20,PAT-20,PAT-20,-8.066668323999977,-79.01025003399997,0,
PAT-21,PAT-21,PAT-21,-8.06667717099998,-79.01031633599996,0,
PAT-22,PAT-22,PAT-22,-8.065718856999979,-79.00775336399994,0,
PAT-23,PAT-23,PAT-23,-8.065761326999962,-79.00773084199994,0,
PAT-24,PAT-24,PAT-24,-8.065123325999934,-79.00465815599995,0,
PAT-25,PAT-25,PAT-25,-8.065198600999963,-79.00462616099998,0,
PAT-26,PAT-26,PAT-26,-8.066069867999943,-79.00698715099998,0,
PAT-27,PAT-27,PAT-27,-8.066063991999954,-79.00695192799998,0,
PAT-28,PAT-28,PAT-28,-8.063028350999957,-79.00750138099994,0,
PAT-29,PAT-29,PAT-29,-8.061286951999932,-79.00657832399997,0,
PAT-30,PAT-30,PAT-30,-8.057602482999926,-79.00565928799995,0,
PAT-31,PAT-31,PAT-31,-8.05765078199994,-79.00557701299994,0,
PAT-32,PAT-32,PAT-32,-8.054509934999942,-79.00470714799997,0,
PAT-33,PAT-33,PAT-33,-8.05455939199993,-79.00461937699998,0,
PAT-34,PAT-34,PAT-34,-8.052422632999935,-79.00595739599999,0,
PAT-35,PAT-35,PAT-35,-8.052547279999942,-79.00607846199995,0,
PAT-36,PAT-36,PAT-36,-8.049568387999955,-79.00328979699998,0,
PAT-37,PAT-37,PAT-37,-8.048724923999941,-79.00636870999995,0,
PAT-38,PAT-38,PAT-38,-8.050613487999954,-79.00796285999996,0,
PAT-39,PAT-39,PAT-39,-8.050632611999958,-79.00792633599997,0,
PAT-40,PAT-40,PAT-40,-8.053878207999958,-79.00903499699996,0,
PAT-41,PAT-41,PAT-41,-8.053940072999978,-79.00895348399996,0,
PAT-42,PAT-42,PAT-42,-8.05729579399997,-79.01002964199995,0,
PAT-43,PAT-43,PAT-43,-8.05730843699996,-79.00997471599999,0,
PAT-44,PAT-44,PAT-44,-8.05908326399998,-79.00802978799999,0,
PAT-45,PAT-45,PAT-45,-8.059073571999932,-79.00796812899995,0,
PAT-46,PAT-46,PAT-46,-8.065606698999943,-79.01195133499994,0,
PAT-47,PAT-47,PAT-47,-8.065517671999942,-79.01197589099996,0,
PAT-48,PAT-48,PAT-48,-8.063631015999931,-79.01088111099995,0,
PAT-49,PAT-49,PAT-49,-8.063565638999933,-79.01080149499995,0,
PAT-50,PAT-50,PAT-50,-8.060701854999934,-79.01040781799998,0,
PAT-51,PAT-51,PAT-51,-8.060734095999976,-79.01033596999997,0,
PAT-52,PAT-52,PAT-52,-8.05966603099995,-79.01269414599994,0,
PAT-53,PAT-53,PAT-53,-8.059755094999957,-79.01275724899995,0,
PAT-54,PAT-54,PAT-54,-8.059433952999939,-79.01040088299999,0,
PAT-55,PAT-55,PAT-55,-8.059347781999975,-79.01037682999998,0,
PAT-56,PAT-56,PAT-56,-8.060040318999938,-79.00833116099994,0,
PAT-57,PAT-57,PAT-57,-8.059968088999938,-79.00830561399994,0,
PAT-58,PAT-58,PAT-58,-8.057828944999926,-79.01217474099997,0,
PAT-59,PAT-59,PAT-59,-8.057903297999928,-79.01215927799996,0,
PAT-60,PAT-60,PAT-60,-8.061361192999925,-79.01444596199997,0,
PAT-61,PAT-61,PAT-61,-8.061354311999935,-79.01449970699997,0,
PAT-62,PAT-62,PAT-62,-8.060905951999928,-79.02311118599994,0,
PAT-63,PAT-63,PAT-63,-8.061014322999938,-79.02304459699997,0,
PAT-64,PAT-64,PAT-64,-8.069072736999942,-79.02150285099998,0,
PAT-66,PAT-66,PAT-66,-8.069567248999931,-79.02597979599994,0,
PAT-67,PAT-67,PAT-67,-8.06550434299993,-79.02654472199998,0,
PAT-68,PAT-68,PAT-68,-8.061843880999959,-79.02560772599998,0,
PAT-69,PAT-69,PAT-69,-8.058157293999955,-79.02316875699995,0,
PAT-70,PAT-70,PAT-70,-8.067409316999942,-79.01546614099993,0,
PAT-71,PAT-71,PAT-71,-8.063673058999939,-79.01617686899993,0,
PAT-72,PAT-72,PAT-72,-8.069799179999961,-79.02581330499999,0,
PAT-73,PAT-73,PAT-73,-8.065406119999977,-79.02642280499998,0,
PAT-74,PAT-74,PAT-74,-8.06188900099994,-79.02549890199998,0,
PAT-75,PAT-75,PAT-75,-8.066163982999967,-79.01495507299995,0,
PAT-76,PAT-76,PAT-76,-8.06736319199996,-79.01554606299999,0,
PAT-77,PAT-77,PAT-77,-8.063676287999954,-79.01623707199997,0,
PAT-78,PAT-78,PAT-78,-8.068163847999926,-79.02056861899996,0,
PAT-79,PAT-79,PAT-79,-8.068111690999956,-79.02048376399995,0,
PAT-80,PAT-80,PAT-80,-8.068292991999954,-79.01769741999993,0,
PAT-81,PAT-81,PAT-81,-8.067219948999934,-79.02036476799998,0,
PAT-82,PAT-82,PAT-82,-8.066793339999947,-79.01829068999996,0,
PAT-83,PAT-83,PAT-83,-8.06808151499996,-79.01781359699999,0,
PAT-84,PAT-84,PAT-84,-8.067117024999959,-79.02039824399998,0,
PAT-85,PAT-85,PAT-85,-8.066719365999973,-79.01831351299995,0,
PAT-86,PAT-86,PAT-86,-8.06971443699996,-79.02783714799995,0,
PAT-87,PAT-87,PAT-87,-8.069769212999972,-79.02787294099994,0,
PAT-88,PAT-88,PAT-88,-8.06692628899998,-79.02837084199996,0,
PAT-89,PAT-89,PAT-89,-8.066977131999977,-79.02839335999994,0,
PAT-90,PAT-90,PAT-90,-8.064148604999957,-79.02724761499996,0,
PAT-91,PAT-91,PAT-91,-8.063724355999966,-79.02420789499996,0,
PAT-92,PAT-92,PAT-92,-8.063671356999976,-79.02419210799997,0,
PAT-93,PAT-93,PAT-93,-8.06528657299998,-79.02222331099995,0,
PAT-94,PAT-94,PAT-94,-8.06530320099995,-79.02233606899995,0,
PAT-95,PAT-95,PAT-95,-8.066081334999978,-79.01499563599998,0,
PAT-96,PAT-96,PAT-96,-8.065621538999949,-79.02031361899998,0,
PAT-97,PAT-97,PAT-97,-8.065687632999925,-79.02033240899993,0,
PAT-98,PAT-98,PAT-98,-8.06510381399994,-79.01766596599998,0,
PAT-99,PAT-99,PAT-99,-8.065179284999942,-79.01766273199996,0,
PAT-100,PAT-100,PAT-100,-8.063398786999926,-79.01606513799999,0,
PAT-101,PAT-101,PAT-101,-8.063416384999925,-79.01604961799995,0,
PAT-102,PAT-102,PAT-102,-8.063934065999945,-79.01888099199994,0,
PAT-103,PAT-103,PAT-103,-8.063995990999956,-79.01887701199996,0,
PAT-104,PAT-104,PAT-104,-8.064423079999926,-79.02153656099995,0,
PAT-105,PAT-105,PAT-105,-8.06447987699994,-79.02153014899994,0,
PAT-106,PAT-106,PAT-106,-8.058194558999958,-79.02313142699995,0,
PAT-107,PAT-107,PAT-107,-8.06590373499995,-79.01732041299994,0,
PAT-108,PAT-108,PAT-108,-8.062232044999973,-79.01798478899997,0,
PAT-109,PAT-109,PAT-109,-8.062226607999946,-79.01793536699995,0,
PAT-110,PAT-110,PAT-110,-8.060521414999926,-79.01686954199994,0,
PAT-111,PAT-111,PAT-111,-8.060500572999956,-79.01681629599994,0,
PAT-112,PAT-112,PAT-112,-8.066300843999954,-79.01938965199997,0,
PAT-113,PAT-113,PAT-113,-8.066304694999928,-79.01942890999999,0,
PAT-114,PAT-114,PAT-114,-8.063492835999966,-79.01999183499998,0,
PAT-115,PAT-115,PAT-115,-8.063457501999949,-79.01991972499997,0,
PAT-116,PAT-116,PAT-116,-8.060344120999957,-79.02056167199999,0,
PAT-117,PAT-117,PAT-117,-8.061355005999928,-79.01967253299995,0,
PAT-118,PAT-118,PAT-118,-8.061327846999973,-79.01967400599995,0,
PAT-119,PAT-119,PAT-119,-8.06304171599993,-79.02072328099996,0,
PAT-120,PAT-120,PAT-120,-8.062237078999942,-79.02169396499994,0,
PAT-121,PAT-121,PAT-121,-8.062215728999945,-79.02164960899995,0,
PAT-122,PAT-122,PAT-122,-8.059802729999944,-79.02204969899998,0,
PAT-123,PAT-123,PAT-123,-8.059816010999953,-79.02212467699997,0,
PAT-124,PAT-124,PAT-124,-8.05977259499997,-79.01831344399994,0,
PAT-125,PAT-125,PAT-125,-8.060056170999928,-79.01846664999994,0,
PAT-126,PAT-126,PAT-126,-8.058975937999946,-79.01941342199996,0,
PAT-127,PAT-127,PAT-127,-8.058932797999944,-79.01938723199999,0,
PAT-128,PAT-128,PAT-128,-8.059564914999953,-79.01961953399996,0,
PAT-129,PAT-129,PAT-129,-8.059625629999971,-79.01959702599999,0,
PAT-130,PAT-130,PAT-130,-8.057514437999941,-79.02196766599997,0,
PAT-131,PAT-131,PAT-131,-8.057556319999946,-79.02200653399996,0,
PAT-132,PAT-132,PAT-132,-8.054849415999968,-79.02337564799996,0,
PAT-133,PAT-133,PAT-133,-8.057685056999958,-79.02032910699995,0,
PAT-134,PAT-134,PAT-134,-8.056190705999938,-79.02260964099997,0,
PAT-135,PAT-135,PAT-135,-8.070127295999953,-79.02964599399996,0,
PAT-136,PAT-136,PAT-136,-8.07012778099994,-79.02971870699997,0,
PAT-137,PAT-137,PAT-137,-8.07026287399998,-79.03256121899994,0,
PAT-138,PAT-138,PAT-138,-8.070202320999954,-79.03256283199994,0,
PAT-140,PAT-140,PAT-140,-8.066938113999981,-79.03286928399996,0,
PAT-141,PAT-141,PAT-141,-8.067774155999928,-79.03141095999996,0,
PAT-142,PAT-142,PAT-142,-8.067713761999926,-79.03143264799996,0,
PAT-143,PAT-143,PAT-143,-8.063680601999977,-79.02830443199997,0,
PAT-144,PAT-144,PAT-144,-8.063675082999964,-79.02827524099996,0,
PAT-145,PAT-145,PAT-145,-8.064682964999975,-79.03005104499994,0,
PAT-146,PAT-146,PAT-146,-8.064714890999937,-79.03003325999998,0,
PAT-147,PAT-147,PAT-147,-8.06580921899996,-79.03005419399994,0,
PAT-148,PAT-148,PAT-148,-8.065791962999981,-79.03002652899994,0,
PAT-149,PAT-149,PAT-149,-8.064410453999926,-79.03195656599996,0,
PAT-150,PAT-150,PAT-150,-8.06440207199995,-79.03199952499995,0,
PAT-151,PAT-151,PAT-151,-8.06497719899994,-79.03275909599995,0,
PAT-152,PAT-152,PAT-152,-8.06494904799996,-79.03276112499998,0,
PAT-153,PAT-153,PAT-153,-8.062628651999944,-79.03223122799994,0,
PAT-154,PAT-154,PAT-154,-8.06263028799998,-79.03218990299996,0,
PAT-155,PAT-155,PAT-155,-8.061212115999979,-79.02875510499996,0,
PAT-156,PAT-156,PAT-156,-8.066124714999944,-79.03024147799994,0,
PAT-157,PAT-157,PAT-157,-8.066093767999973,-79.03022982499994,0,
PE-1,PE-1,PE-1,-8.051992577999954,-79.05901765099998,0,
PE-2,PE-2,PE-2,-8.051164669999935,-79.06066454999996,0,
PE-3,PE-3,PE-3,-8.049899559999972,-79.06299842099997,0,
PE-4,PE-4,PE-4,-8.04840096299995,-79.06595210099994,0,
PE-5,PE-5,PE-5,-8.046722294999938,-79.06858449299995,0,
PE-6,PE-6,PE-6,-8.045890141999962,-79.07020991799999,0,
PE-7,PE-7,PE-7,-8.047731780999925,-79.07235953899999,0,
PE-8,PE-8,PE-8,-8.049481666999952,-79.07440074899995,0,
PE-9,PE-9,PE-9,-8.051333930999931,-79.07654390099998,0,
PE-10,PE-10,PE-10,-8.053387202999943,-79.07896833499996,0,
PE-11,PE-11,PE-11,-8.047510072999955,-79.06875001599997,0,
PE-12,PE-12,PE-12,-8.049005428999976,-79.07049575499997,0,
PE-13,PE-13,PE-13,-8.050974400999962,-79.07276339599997,0,
PE-14,PE-14,PE-14,-8.052974784999947,-79.07512619099998,0,
PE-15,PE-15,PE-15,-8.05454278999997,-79.07695595099995,0,
PE-16,PE-16,PE-16,-8.04896224199996,-79.06880416199994,0,
PE-17,PE-17,PE-17,-8.051042332999941,-79.07123778899995,0,
PE-18,PE-18,PE-18,-8.04941406499995,-79.06845712299997,0,
PE-19,PE-19,PE-19,-8.051161129999969,-79.06937411599995,0,
PE-20,PE-20,PE-20,-8.053801316999966,-79.07079378999998,0,
PE-21,PE-21,PE-21,-8.056347961999961,-79.07210802499998,0,
PE-22,PE-22,PE-22,-8.060287823999943,-79.07697199899997,0,
PE-23,PE-23,PE-23,-8.05843435099996,-79.07856919999995,0,
PE-24,PE-24,PE-24,-8.056603447999976,-79.07934696799998,0,
PE-25,PE-25,PE-25,-8.058097030999932,-79.08108660899995,0,
PE-26,PE-26,PE-26,-8.059481667999933,-79.08271962499998,0,
PE-27,PE-27,PE-27,-8.061923710999963,-79.08128394899995,0,
PE-28,PE-28,PE-28,-8.064596735999942,-79.07852072399999,0,
PE-29,PE-29,PE-29,-8.066710137999962,-79.06809361499995,0,
PE-30,PE-30,PE-30,-8.06546982499998,-79.06542857999995,0,
PE-31,PE-31,PE-31,-8.065914603999943,-79.07695485899995,0,
PE-32,PE-32,PE-32,-8.067331028999945,-79.07549189499997,0,
PE-33,PE-33,PE-33,-8.06821870899995,-79.07157092899996,0,
PE-34,PE-34,PE-34,-8.06292323599996,-79.05480397199995,0,
PE-35,PE-35,PE-35,-8.064016352999943,-79.05761911099995,0,
PE-36,PE-36,PE-36,-8.064958452999974,-79.06034684599996,0,
PE-37,PE-37,PE-37,-8.066123379999965,-79.05732815799996,0,
PE-38,PE-38,PE-38,-8.068005167999956,-79.05671258099994,0,
PE-39,PE-39,PE-39,-8.070522970999946,-79.05585371699993,0,
PE-40,PE-40,PE-40,-8.072978423999928,-79.05498093299997,0,
PE-42,PE-42,PE-42,-8.067761154999971,-79.05072510599996,0,
PE-43,PE-43,PE-43,-8.063725664999936,-79.05200438399999,0,
PE-44,PE-44,PE-44,-8.074270998999964,-79.04806786899996,0,
PE-45,PE-45,PE-45,-8.076380660999973,-79.04683527899994,0,
PE-46,PE-46,PE-46,-8.079254674999959,-79.04519408399995,0,
PE-47,PE-47,PE-47,-8.07440184799998,-79.05650487699995,0,
PE-48,PE-48,PE-48,-8.073282736999943,-79.05323981299995,0,
PE-49,PE-49,PE-49,-8.072319952999976,-79.05057148899994,0,
PE-50,PE-50,PE-50,-8.072489685999926,-79.04925645599997,0,
PE-52,PE-52,PE-52,-8.06466577699996,-79.04930352299994,0,
PE-53,PE-53,PE-53,-8.067620560999956,-79.04824908099994,0,
PE-54,PE-54,PE-54,-8.069721492999975,-79.04710101699999,0,
PE-55,PE-55,PE-55,-8.072162447999972,-79.04564644599998,0,
PE-56,PE-56,PE-56,-8.074679488999948,-79.04436646499994,0,
PE-57,PE-57,PE-57,-8.076951969999925,-79.04311664699998,0,
PE-58,PE-58,PE-58,-8.078735611999946,-79.04211071399999,0,
PE-59,PE-59,PE-59,-8.062025271999971,-79.05002817599996,0,
PE-60,PE-60,PE-60,-8.062746431999926,-79.04918930899998,0,
PE-61,PE-61,PE-61,-8.065545848999932,-79.04839867599998,0,
PE-62,PE-62,PE-62,-8.068434599999932,-79.04697136399994,0,
PE-63,PE-63,PE-63,-8.070545866999964,-79.04575683199994,0,
PE-64,PE-64,PE-64,-8.072889541999928,-79.04451851199997,0,
PE-65,PE-65,PE-65,-8.075377535999962,-79.04317728299998,0,
PE-66,PE-66,PE-66,-8.077593459999946,-79.04196059299994,0,
PE-67,PE-67,PE-67,-8.055536857999925,-79.04808197499995,0,
PE-68,PE-68,PE-68,-8.055916668999942,-79.04974894999998,0,
PE-69,PE-69,PE-69,-8.056595718999972,-79.05151985399993,0,
PE-72,PE-72,PE-72,-8.06141372299993,-79.04891755499995,0,
PE-73,PE-73,PE-73,-8.062114494999946,-79.05175233099999,0,
PE-74,PE-74,PE-74,-8.063247433999948,-79.04747140199999,0,
PE-75,PE-75,PE-75,-8.064864081999929,-79.04579728699997,0,
PE-76,PE-76,PE-76,-8.065878662999978,-79.04476867299996,0,
PE-77,PE-77,PE-77,-8.067959887999962,-79.04781160499994,0,
PE-78,PE-78,PE-78,-8.066938002999962,-79.04547689899994,0,
PE-79,PE-79,PE-79,-8.068788937999955,-79.04459763999995,0,
PE-80,PE-80,PE-80,-8.070568684999955,-79.04337623599997,0,
PE-81,PE-81,PE-81,-8.072111681999957,-79.04154960599999,0,
PE-82,PE-82,PE-82,-8.073714198999937,-79.04236649699999,0,
PE-83,PE-83,PE-83,-8.075399091999941,-79.04138890299998,0,
PE-84,PE-84,PE-84,-8.07754388899997,-79.04036887999996,0,
PE-85,PE-85,PE-85,-8.075376138999957,-79.05267559199996,0,
PE-86,PE-86,PE-86,-8.078172835999965,-79.05147621699996,0,
PE-87,PE-87,PE-87,-8.081063502999939,-79.05016930299996,0,
PE-88,PE-88,PE-88,-8.075961120999978,-79.05686562399995,0,
PE-89,PE-89,PE-89,-8.078487374999952,-79.05589695999998,0,
PE-90,PE-90,PE-90,-8.080852052999944,-79.05486382999999,0,
PE-91,PE-91,PE-91,-8.080756747999942,-79.04847469999999,0,
PE-94,PE-94,PE-94,-8.073572259999935,-79.05845368399997,0,
PE-95,PE-95,PE-95,-8.074650584999972,-79.05973471899995,0,
PE-96,PE-96,PE-96,-8.073240295999938,-79.06149210699994,0,
PE-97,PE-97,PE-97,-8.07266094299996,-79.06058181699996,0,
PE-98,PE-98,PE-98,-8.046633330999953,-79.05748020199997,0,
PE-99,PE-99,PE-99,-8.051714740999955,-79.05733787199995,0,
PE-100,PE-100,PE-100,-8.051591191999933,-79.05474847399995,0,
PE-101,PE-101,PE-101,-8.050712415999953,-79.05194078699998,0,
PE-102,PE-102,PE-102,-8.04932211299996,-79.05012206299995,0,
PE-103,PE-103,PE-103,-8.050096443999962,-79.05117566299998,0,
PE-104,PE-104,PE-104,-8.047901864999972,-79.05269459699997,0,
PE-105,PE-105,PE-105,-8.045922023999935,-79.05246547099995,0,
PE-106,PE-106,PE-106,-8.043770613999925,-79.05161701599997,0,
PE-107,PE-107,PE-107,-8.045844531999933,-79.05005859999994,0,
PE-108,PE-108,PE-108,-8.047836054999948,-79.04966256399996,0,
PE-110,PE-110,PE-110,-8.051748617999976,-79.05492108199996,0,
PE-111,PE-111,PE-111,-8.050789203999955,-79.05186037899995,0,
PE-112,PE-112,PE-112,-8.049343918999966,-79.05004409499998,0,
PE-113,PE-113,PE-113,-8.047786826999925,-79.04942794299996,0,
PE-114,PE-114,PE-114,-8.045493055999941,-79.05022412699998,0,
PE-115,PE-115,PE-115,-8.04376323699995,-79.05148155999996,0,
PE-116,PE-116,PE-116,-8.045900753999945,-79.05243913399994,0,
PE-117,PE-117,PE-117,-8.047883916999979,-79.05276839399994,0,
PE-118,PE-118,PE-118,-8.050025448999975,-79.05136412499996,0,
PE-119,PE-119,PE-119,-8.049360037999975,-79.05375771799999,0,
PE-120,PE-120,PE-120,-8.052881732999936,-79.05013143099995,0,
PE-121,PE-121,PE-121,-8.05514521899994,-79.07868211699997,0,
PE-122,PE-122,PE-122,-8.055495105999967,-79.07685121899993,0,
PE-123,PE-123,PE-123,-8.05766179099993,-79.07493186399995,0,
PE-124,PE-124,PE-124,-8.057341617999953,-79.07377679799998,0,
PE-125,PE-125,PE-125,-8.058787346999964,-79.07456477799997,0,
PE-126,PE-126,PE-126,-8.055408184999976,-79.07461527099997,0,
PE-127,PE-127,PE-127,-8.052220449999936,-79.07534835399997,0,
PE-128,PE-128,PE-128,-8.053864846999943,-79.07390272599997,0,
PE-129,PE-129,PE-129,-8.052962692999927,-79.07828739499996,0,
PE-130,PE-130,PE-130,-8.051014794999958,-79.07601699999998,0,
PE-131,PE-131,PE-131,-8.049205607999966,-79.07389696499996,0,
PE-132,PE-132,PE-132,-8.047364933999972,-79.07181711499999,0,
PE-133,PE-133,PE-133,-8.045767462999947,-79.06987950999996,0,
PE-134,PE-134,PE-134,-8.054412958999933,-79.07668623299998,0,
PE-135,PE-135,PE-135,-8.052619077999964,-79.07456265999997,0,
PE-136,PE-136,PE-136,-8.050851259999945,-79.07248251499999,0,
PE-137,PE-137,PE-137,-8.049026589999926,-79.07036052399997,0,
PE-138,PE-138,PE-138,-8.047412531999953,-79.06843252599998,0,
PE-139,PE-139,PE-139,-8.05101248799997,-79.07103163699998,0,
PE-140,PE-140,PE-140,-8.049164750999978,-79.06886957199998,0,
PE-141,PE-141,PE-141,-8.055857557999957,-79.07154112399996,0,
PE-142,PE-142,PE-142,-8.053693307999936,-79.07039568299996,0,
PE-143,PE-143,PE-143,-8.05361831199997,-79.06813228599998,0,
PE-144,PE-144,PE-144,-8.055016635999948,-79.06543637199997,0,
PE-145,PE-145,PE-145,-8.05616573499998,-79.06324371999995,0,
PE-146,PE-146,PE-146,-8.048807818999933,-79.06584564999997,0,
PE-147,PE-147,PE-147,-8.050011635999965,-79.06341031499994,0,
PE-148,PE-148,PE-148,-8.051263535999965,-79.06098761599998,0,
PE-149,PE-149,PE-149,-8.052526099999966,-79.05870361199999,0,
PE-150,PE-150,PE-150,-8.052749245999962,-79.06683353299996,0,
PE-151,PE-151,PE-151,-8.050788773999955,-79.06579563999998,0,
PE-152,PE-152,PE-152,-8.048900183999933,-79.06038561699995,0,
PE-153,PE-153,PE-153,-8.047637426999927,-79.06272403599996,0,
PE-154,PE-154,PE-154,-8.046516597999926,-79.06487627099995,0,
PE-155,PE-155,PE-155,-8.067230841999958,-79.07551524199994,0,
PE-156,PE-156,PE-156,-8.06455211399998,-79.07848648099997,0,
PE-157,PE-157,PE-157,-8.06581521499993,-79.07696897899996,0,
PE-158,PE-158,PE-158,-8.056679244999941,-79.07929303699996,0,
PE-159,PE-159,PE-159,-8.059452928999974,-79.07612328399995,0,
PE-160,PE-160,PE-160,-8.065166297999951,-79.06533299099993,0,
PE-161,PE-161,PE-161,-8.066587931999948,-79.06846438999997,0,
PE-163,PE-163,PE-163,-8.06387091199997,-79.06699467199996,0,
PE-164,PE-164,PE-164,-8.062900861999935,-79.06949133699999,0,
PE-165,PE-165,PE-165,-8.061771128999965,-79.07164992599996,0,
PE-166,PE-166,PE-166,-8.060665184999948,-79.07380459799998,0,
PE-167,PE-167,PE-167,-8.064416601999937,-79.06830228499996,0,
PE-168,PE-168,PE-168,-8.063717481999959,-79.07029810599994,0,
PE-169,PE-169,PE-169,-8.062633238999979,-79.07235514099995,0,
PE-170,PE-170,PE-170,-8.061491459999957,-79.07457255699995,0,
PE-171,PE-171,PE-171,-8.065408674999958,-79.07076479899996,0,
PE-172,PE-172,PE-172,-8.064311908999969,-79.07289284099994,0,
PE-173,PE-173,PE-173,-8.06323243199995,-79.07498012799994,0,
PE-174,PE-174,PE-174,-8.063959972999953,-79.07859655999994,0,
PE-175,PE-175,PE-175,-8.057535292999944,-79.07779650699996,0,
PE-176,PE-176,PE-176,-8.060174657999937,-79.07699603199995,0,
PE-177,PE-177,PE-177,-8.058260005999955,-79.07864314999995,0,
PE-178,PE-178,PE-178,-8.075538562999952,-79.04312774399995,0,
PE-179,PE-179,PE-179,-8.077805181999963,-79.04189367299995,0,
PE-180,PE-180,PE-180,-8.062201878999929,-79.04994684299999,0,
PE-181,PE-181,PE-181,-8.064856751999969,-79.04925314399998,0,
PE-182,PE-182,PE-182,-8.067710346999945,-79.04813640699996,0,
PE-183,PE-183,PE-183,-8.069628382999952,-79.04719338199999,0,
PE-184,PE-184,PE-184,-8.072036596999965,-79.04580583399996,0,
PE-185,PE-185,PE-185,-8.074817010999936,-79.04432079999998,0,
PE-186,PE-186,PE-186,-8.077108704999944,-79.04302058699994,0,
PE-187,PE-187,PE-187,-8.079271809999966,-79.04182426699998,0,
PE-188,PE-188,PE-188,-8.06353073899993,-79.05178851399995,0,
PE-189,PE-189,PE-189,-8.067539130999933,-79.05060939399993,0,
PE-190,PE-190,PE-190,-8.075437956999963,-79.04145129999995,0,
PE-191,PE-191,PE-191,-8.077385393999975,-79.04038438699996,0,
PE-192,PE-192,PE-192,-8.062563849999947,-79.04927061599994,0,
PE-193,PE-193,PE-193,-8.06543129299996,-79.04846217799997,0,
PE-194,PE-194,PE-194,-8.06831022199998,-79.04699984799998,0,
PE-195,PE-195,PE-195,-8.070455967999976,-79.04586833699994,0,
PE-196,PE-196,PE-196,-8.072947781999972,-79.04441671299998,0,
PE-197,PE-197,PE-197,-8.071951214999956,-79.04913043299996,0,
PE-198,PE-198,PE-198,-8.07443270799996,-79.04776535999997,0,
PE-199,PE-199,PE-199,-8.077263364999965,-79.04616247599995,0,
PE-200,PE-200,PE-200,-8.079832213999964,-79.04468570199998,0,
PE-201,PE-201,PE-201,-8.072242853999967,-79.05059758699997,0,
PE-202,PE-202,PE-202,-8.073188320999975,-79.05323476099994,0,
PE-203,PE-203,PE-203,-8.073064173999967,-79.05496785699995,0,
PE-204,PE-204,PE-204,-8.07083221399995,-79.05577851799995,0,
PE-205,PE-205,PE-205,-8.067722664999962,-79.05683912599994,0,
PE-206,PE-206,PE-206,-8.06561923299995,-79.05758845599996,0,
PE-207,PE-207,PE-207,-8.06399173799997,-79.05769395399994,0,
PE-208,PE-208,PE-208,-8.062887469999964,-79.05484934599997,0,
PE-209,PE-209,PE-209,-8.065003059999981,-79.06041967899995,0,
PE-210,PE-210,PE-210,-8.067323622999936,-79.06060083599994,0,
PE-213,PE-213,PE-213,-8.072575006999955,-79.06062067899995,0,
PE-214,PE-214,PE-214,-8.073179871999969,-79.06147745399994,0,
PE-215,PE-215,PE-215,-8.074630320999972,-79.05984812799994,0,
PE-216,PE-216,PE-216,-8.074295423999956,-79.05643468199997,0,
PE-219,PE-219,PE-219,-8.08083862799998,-79.05482774599994,0,
PE-220,PE-220,PE-220,-8.08089318499998,-79.05016070699997,0,
PE-221,PE-221,PE-221,-8.077988563999952,-79.05148006799999,0,
PE-222,PE-222,PE-222,-8.075489923999953,-79.05265308899999,0,
PE-223,PE-223,PE-223,-8.072578047999968,-79.04912380299999,0,
PE-225,PE-225,PE-225,-8.078827312999977,-79.04632484399997,0,
PE-226,PE-226,PE-226,-8.080707397999959,-79.04841268499996,0,
PE-227,PE-227,PE-227,-8.055710412999929,-79.04858437299998,0,
PE-228,PE-228,PE-228,-8.056784577999963,-79.05021983399996,0,
PE-229,PE-229,PE-229,-8.057520129999943,-79.04887287399998,0,
PE-230,PE-230,PE-230,-8.056431127999929,-79.05093760899996,0,
PE-231,PE-231,PE-231,-8.06054113099998,-79.04785479999998,0,
PE-232,PE-232,PE-232,-8.061483824999925,-79.04924071199997,0,
PE-233,PE-233,PE-233,-8.062138122999954,-79.05201784099995,0,
PE-234,PE-234,PE-234,-8.062785319999932,-79.04787304799999,0,
PE-235,PE-235,PE-235,-8.064439252999932,-79.04615705799995,0,
PE-236,PE-236,PE-236,-8.04598928699994,-79.05737732999995,0,
PE-237_1,PE-237,PE-237_1,-8.049601165999945,-79.05634030399995,0,
PE-238_1,PE-238,PE-238_1,-8.065602061999925,-79.04492777399997,0,
PE-239_1,PE-239,PE-239_1,-8.066763263999974,-79.04520122399998,0,
PE-240_1,PE-240,PE-240_1,-8.068428315999938,-79.04483268499996,0,
PE-241_1,PE-241,PE-241_1,-8.067931457999975,-79.04758247999996,0,
PE-242_1,PE-242,PE-242_1,-8.070526748999953,-79.04335032299997,0,
PE-243_1,PE-243,PE-243_1,-8.071911460999956,-79.04166601699995,0,
PE-244_1,PE-244,PE-244_1,-8.073757112999942,-79.04124998799995,0,
PE-245_1,PE-245,PE-245_1,-8.082240893999938,-79.05243684399994,0,
PE-246_1,PE-246,PE-246_1,-8.08218299999993,-79.05247325499994,0,
PE-247_1,PE-247,PE-247_1,-8.08213580499995,-79.04920395799996,0,
PE-248,PE-248,PE-248,-8.082176733999972,-79.04916103799997,0,
PE-249,PE-249,PE-249,-8.08196918799996,-79.04695449299999,0,
PE-250,PE-250,PE-250,-8.08114932999996,-79.04661597799998,0,
PE-252,PE-252,PE-252,-8.071421947999966,-79.06280713499996,0,
PE-253,PE-253,PE-253,-8.072388229999945,-79.06429831499997,0,
PE-254,PE-254,PE-254,-8.072352394999939,-79.06427958299997,0,
PE-255,PE-255,PE-255,-8.071967556999937,-79.06481645299993,0,
PE-256,PE-256,PE-256,-8.072147958999949,-79.06439168699995,0,
PE-257,PE-257,PE-257,-8.071209284999952,-79.06709391899994,0,
PE-258,PE-258,PE-258,-8.071260178999978,-79.06711204099997,0,
PE-259,PE-259,PE-259,-8.070119782999939,-79.06992791199997,0,
PE-260,PE-260,PE-260,-8.070083374999967,-79.06990067699996,0,
PE-261,PE-261,PE-261,-8.068954405999932,-79.07265425399999,0,
PE-262,PE-262,PE-262,-8.069021077999935,-79.07269028199994,0,
PE-263,PE-263,PE-263,-8.069106451999971,-79.06721029999994,0,
PE-264,PE-264,PE-264,-8.068910338999956,-79.06688736899997,0,
PE-265,PE-265,PE-265,-8.06745038899993,-79.06363629899994,0,
PE-266,PE-266,PE-266,-8.06765397099997,-79.06398378299997,0,
PE-267,PE-267,PE-267,-8.06576851699998,-79.06195249599995,0,
PE-268,PE-268,PE-268,-8.065743715999929,-79.06199974799995,0,
PE-269,PE-269,PE-269,-8.064592540999968,-79.06187555199995,0,
PE-270,PE-270,PE-270,-8.06440190099994,-79.06184250499996,0,
PE-271,PE-271,PE-271,-8.059659715999942,-79.05332546399995,0,
PE-272,PE-272,PE-272,-8.059543876999953,-79.05317247999994,0,
PE-273,PE-273,PE-273,-8.056694590999939,-79.05426988099998,0,
PE-274,PE-274,PE-274,-8.05619471999995,-79.05427857699993,0,
PE-275,PE-275,PE-275,-8.053390276999949,-79.05520040799996,0,
PE-276,PE-276,PE-276,-8.049469926999961,-79.05677021099996,0,
PE-277,PE-277,PE-277,-8.05293636099998,-79.05606225199995,0,
PE-278,PE-278,PE-278,-8.057241087999955,-79.05986116599996,0,
PE-279,PE-279,PE-279,-8.05711451299993,-79.06004679599994,0,
PE-280,PE-280,PE-280,-8.053612276999957,-79.05798460399996,0,
PE-281,PE-281,PE-281,-8.053458569999975,-79.05815461599997,0,
PE-282,PE-282,PE-282,-8.053972933999944,-79.05580069799998,0,
PE-283,PE-283,PE-283,-8.047375648999946,-79.07091889099996,0,
PE-284,PE-284,PE-284,-8.047332385999937,-79.07088921999997,0,
PE-285,PE-285,PE-285,-8.08364611899998,-79.04323741699994,0,
PE-286,PE-286,PE-286,-8.081822736999925,-79.04004408299994,0,
PE-287,PE-287,PE-287,-8.08040633099995,-79.03751287599994,0,
PE-288,PE-288,PE-288,-8.084774188999972,-79.04093695499995,0,
PE-289,PE-289,PE-289,-8.083591486999978,-79.04315603999999,0,
PE-290,PE-290,PE-290,-8.081725897999945,-79.03995792099994,0,
PE-291,PE-291,PE-291,-8.080297918999975,-79.03738682299996,0,
PE-292,PE-292,PE-292,-8.084828603999938,-79.04097297799996,0,
PE-293,PE-293,PE-293,-8.077568374999942,-79.03513166099998,0,
PE-294,PE-294,PE-294,-8.077612164999948,-79.03518032599999,0,
PE-295,PE-295,PE-295,-8.078913383999975,-79.03351434499996,0,
PE-296,PE-296,PE-296,-8.078852732999962,-79.03348444599999,0,
PE-297,PE-297,PE-297,-8.075621268999953,-79.03491570999995,0,
PE-298,PE-298,PE-298,-8.07564251399998,-79.03484609699996,0,
PE-299,PE-299,PE-299,-8.080912324999929,-79.03245618499994,0,
PE-300,PE-300,PE-300,-8.080853136999963,-79.03243337999999,0,
PE-301,PE-301,PE-301,-8.08300701099995,-79.04307776599995,0,
PE-302,PE-302,PE-302,-8.08375637599994,-79.04243329199994,0,
PE-303,PE-303,PE-303,-8.084032194999963,-79.04418662399996,0,
PE-304,PE-304,PE-304,-8.083958706999965,-79.04400182699999,0,
PE-305,PE-305,PE-305,-8.081488203999982,-79.04511672499996,0,
PE-306,PE-306,PE-306,-8.081580936999956,-79.04530125999997,0,
PE-307,PE-307,PE-307,-8.082387023999956,-79.04010145199999,0,
PE-308,PE-308,PE-308,-8.08239402099997,-79.04005605799995,0,
PE-309,PE-309,PE-309,-8.077980638999975,-79.03838119699998,0,
PE-310,PE-310,PE-310,-8.077934631999938,-79.03836598099997,0,
PE-311,PE-311,PE-311,-8.076883775999931,-79.03761015199996,0,
PE-312,PE-312,PE-312,-8.076893299999938,-79.03750187799994,0,
PE-313,PE-313,PE-313,-8.080642544999932,-79.03690420999999,0,
PE-314,PE-314,PE-314,-8.080603269999926,-79.03685270099999,0,
PE-315,PE-315,PE-315,-8.083655319999934,-79.03515726899997,0,
PE-316,PE-316,PE-316,-8.083592754999927,-79.03513743099995,0,
PE-317,PE-317,PE-317,-8.086508539999954,-79.03354258299998,0,
PE-318,PE-318,PE-318,-8.086502425999981,-79.03349125499994,0,
PE-319,PE-319,PE-319,-8.08162583199993,-79.03246115499996,0,
PE-320,PE-320,PE-320,-8.081568973999936,-79.03240400599998,0,
PE-321,PE-321,PE-321,-8.077907508999942,-79.03582482099995,0,
PE-322,PE-322,PE-322,-8.07787325299995,-79.03579984199996,0,
PE-323,PE-323,PE-323,-8.080559481999956,-79.03432480899994,0,
PE-324,PE-324,PE-324,-8.080640487999972,-79.03432930199995,0,
PE-325,PE-325,PE-325,-8.083478061999926,-79.03278117399998,0,
PE-326,PE-326,PE-326,-8.083433440999954,-79.03270279899994,0,
PE-327,PE-327,PE-327,-8.08575009499998,-79.03142619899995,0,
PE-328,PE-328,PE-328,-8.085762130999967,-79.03139687099997,0,
PE-329,PE-329,PE-329,-8.07886092299998,-79.03241878899996,0,
PE-330,PE-330,PE-330,-8.07890139999995,-79.03244579399995,0,
PE-331,PE-331,PE-331,-8.066937432999964,-79.03293831599996,0,
PE-332,PE-332,PE-332,-8.068327051999972,-79.03432111099994,0,
PE-333,PE-333,PE-333,-8.068318610999938,-79.03427647199999,0,
PE-334,PE-334,PE-334,-8.062945002999982,-79.03391876799998,0,
PE-335,PE-335,PE-335,-8.06293250999994,-79.03388696899998,0,
PE-336,PE-336,PE-336,-8.073566685999936,-79.03375191799995,0,
PE-337,PE-337,PE-337,-8.073544081999955,-79.03380580599998,0,
PE-338,PE-338,PE-338,-8.071278932999974,-79.03421381599998,0,
PE-339,PE-339,PE-339,-8.07129976799996,-79.03425455899998,0,
PE-340,PE-340,PE-340,-8.067949617999943,-79.03457008599997,0,
PE-341,PE-341,PE-341,-8.068601691999959,-79.03476602399996,0,
PE-343,PE-343,PE-343,-8.066502734999972,-79.03601585399997,0,
PE-344,PE-344,PE-344,-8.067816654999945,-79.03741483899995,0,
PE-345,PE-345,PE-345,-8.067571356999963,-79.03719689299999,0,
PE-346,PE-346,PE-346,-8.066447818999961,-79.03960362899994,0,
PE-347,PE-347,PE-347,-8.066567043999953,-79.03956398999998,0,
PE-348,PE-348,PE-348,-8.063606726999978,-79.04042947999994,0,
PE-349,PE-349,PE-349,-8.06433861499994,-79.04177048899999,0,
PE-350,PE-350,PE-350,-8.06131817499994,-79.04356287299998,0,
PE-351,PE-351,PE-351,-8.060549052999932,-79.04227777199998,0,
PE-352,PE-352,PE-352,-8.080589750999934,-79.04189453599997,0,
PE-353,PE-353,PE-353,-8.080745595999929,-79.04185071699999,0,
PP-1,PP-1,PP-1,-8.066886626999974,-79.00415674799996,0,
PP-2,PP-2,PP-2,-8.072067156999935,-78.99392233099996,0,
PP-3,PP-3,PP-3,-8.065702231999978,-78.98871169299997,0,
PP-4,PP-4,PP-4,-8.070245917999955,-78.98660359299998,0,
PP-5,PP-5,PP-5,-8.069016154999929,-78.99270849299995,0,
PP-6,PP-6,PP-6,-8.070666538999944,-78.99725667899997,0,
PP-7,PP-7,PP-7,-8.067764943999975,-78.99615265199998,0,
PP-9,PP-9,PP-9,-8.066324023999925,-78.99165760999995,0,
PP-10,PP-10,PP-10,-8.071441457999981,-78.99053666999998,0,
PP-11,PP-11,PP-11,-8.082935307999946,-78.99282291099996,0,
PP-12,PP-12,PP-12,-8.079987134999953,-78.99362243199994,0,
PP-13,PP-13,PP-13,-8.076969444999975,-78.99268937499994,0,
PP-14,PP-14,PP-14,-8.074917053999968,-78.99357655999995,0,
PP-15,PP-15,PP-15,-8.074067188999948,-78.99151118999998,0,
PP-16,PP-16,PP-16,-8.074235289999933,-78.99054653899998,0,
PP-17,PP-17,PP-17,-8.085515807999968,-79.01220534999999,0,
PP-18,PP-18,PP-18,-8.080460466999966,-79.00855816699999,0,
PP-19,PP-19,PP-19,-8.084234986999945,-79.00936434099998,0,
PP-20,PP-20,PP-20,-8.08136435199998,-79.00938353199996,0,
PP-21,PP-21,PP-21,-8.079895595999972,-79.00654512999995,0,
PP-22,PP-22,PP-22,-8.078528366999933,-79.00901980099997,0,
PP-23,PP-23,PP-23,-8.086100018999957,-79.00885678999998,0,
PP-24,PP-24,PP-24,-8.086351845999957,-79.00601571799996,0,
PP-25,PP-25,PP-25,-8.086960659999932,-79.00136515399998,0,
PP-26,PP-26,PP-26,-8.087927469999954,-78.99806933199994,0,
PP-27,PP-27,PP-27,-8.088992964999932,-78.99407348399995,0,
PP-28,PP-28,PP-28,-8.074955589999945,-79.00712744399993,0,
PP-29,PP-29,PP-29,-8.071878798999933,-79.00579453699999,0,
PP-30,PP-30,PP-30,-8.07855266799993,-79.00326313699998,0,
PP-31,PP-31,PP-31,-8.077897769999936,-78.99983188099998,0,
PP-32,PP-32,PP-32,-8.074453094999967,-78.99487104999997,0,
PP-34,PP-34,PP-34,-8.071512009999935,-78.99035501399999,0,
PP-35,PP-35,PP-35,-8.067825067999934,-78.98519668799997,0,
PP-36,PP-36,PP-36,-8.06669003199994,-78.98595491099996,0,
PP-37,PP-37,PP-37,-8.074125506999962,-78.99139148999996,0,
PP-39,PP-39,PP-39,-8.079514848999963,-78.99980158799997,0,
PP-40,PP-40,PP-40,-8.082964628999946,-79.00091740999994,0,
PP-41,PP-41,PP-41,-8.086796233999962,-78.99404398499996,0,
PP-42,PP-42,PP-42,-8.089137224999945,-78.99411169199999,0,
PP-43,PP-43,PP-43,-8.088130934999981,-78.99811325899998,0,
PP-44,PP-44,PP-44,-8.087191363999978,-79.00133152199999,0,
PP-46,PP-46,PP-46,-8.08316289399994,-78.99553256699994,0,
PP-47,PP-47,PP-47,-8.08341771199997,-78.99526947899994,0,
PP-48,PP-48,PP-48,-8.08151394999993,-78.99909385099994,0,
PP-49,PP-49,PP-49,-8.08155845899995,-78.99905419399994,0,
PP-50,PP-50,PP-50,-8.084206484999982,-79.00016251199997,0,
PP-51,PP-51,PP-51,-8.084020503999966,-79.00019829399997,0,
PP-52,PP-52,PP-52,-8.066286269999978,-78.99178801699998,0,
PP-53,PP-53,PP-53,-8.068957957999942,-78.99286782299998,0,
PP-54,PP-54,PP-54,-8.07210041899998,-78.99411489299996,0,
PP-55,PP-55,PP-55,-8.07440368899995,-78.99503689799997,0,
PP-56,PP-56,PP-56,-8.077202745999955,-78.99615737599999,0,
PP-57,PP-57,PP-57,-8.077063278999958,-78.99336493599998,0,
PP-58,PP-58,PP-58,-8.077085225999951,-78.99331099699998,0,
PP-59,PP-59,PP-59,-8.079996802999972,-78.99372840199999,0,
PP-60,PP-60,PP-60,-8.088632719999964,-78.99399367699993,0,
PP-61,PP-61,PP-61,-8.088585340999941,-78.99398814399996,0,
PP-62,PP-62,PP-62,-8.087217023999926,-78.99633881099999,0,
PP-63,PP-63,PP-63,-8.087174127999958,-78.99629995499998,0,
PP-64,PP-64,PP-64,-8.086496178999937,-78.99887299599999,0,
PP-65,PP-65,PP-65,-8.086433625999973,-78.99886280299995,0,
PP-66,PP-66,PP-66,-8.085813314999939,-79.00115446399997,0,
PP-67,PP-67,PP-67,-8.085838715999955,-79.00120769099993,0,
PP-68,PP-68,PP-68,-8.085074359999965,-79.00391917899998,0,
PP-69,PP-69,PP-69,-8.085023559999968,-79.00392034399994,0,
PP-70,PP-70,PP-70,-8.085742385999936,-79.00319393399997,0,
PP-71,PP-71,PP-71,-8.085766107999973,-79.00326050199999,0,
PP-72,PP-72,PP-72,-8.083455870999956,-79.00309895399994,0,
PP-73,PP-73,PP-73,-8.083465011999976,-79.00303258799994,0,
PP-74,PP-74,PP-74,-8.06776459799994,-78.99626655399999,0,
PP-75,PP-75,PP-75,-8.070624900999974,-78.99736029899998,0,
PP-77,PP-77,PP-77,-8.064918767999927,-78.99516161799994,0,
PP-78,PP-78,PP-78,-8.064060747999974,-78.99036862899999,0,
PP-79,PP-79,PP-79,-8.064008549999926,-78.99035021199995,0,
PP-80,PP-80,PP-80,-8.06418391699998,-78.99084361099995,0,
PP-81,PP-81,PP-81,-8.064187840999978,-78.99075897899996,0,
PP-82,PP-82,PP-82,-8.065619186999982,-78.98869090199997,0,
PP-83,PP-83,PP-83,-8.06673301799998,-78.98597325099996,0,
PP-84,PP-84,PP-84,-8.070351658999925,-78.98859651799995,0,
PP-85,PP-85,PP-85,-8.070410779999975,-78.98860546199995,0,
PP-87,PP-87,PP-87,-8.081371883999964,-79.00937626499996,0,
PP-88,PP-88,PP-88,-8.080502551999928,-79.00852704099998,0,
PP-89,PP-89,PP-89,-8.079820696999946,-79.00646339299999,0,
PP-90,PP-90,PP-90,-8.079483945999925,-79.00006329299998,0,
PP-91,PP-91,PP-91,-8.08067983799998,-79.00203808699996,0,
PP-92,PP-92,PP-92,-8.08066157299993,-79.00200031699995,0,
PP-93,PP-93,PP-93,-8.07921803399995,-79.00397180799996,0,
PP-94,PP-94,PP-94,-8.079115893999926,-79.00400245299994,0,
PP-95,PP-95,PP-95,-8.077028800999926,-79.00606774299996,0,
PP-96,PP-96,PP-96,-8.076998188999937,-79.00604705999996,0,
PP-97,PP-97,PP-97,-8.07823458699994,-79.00697306999996,0,
PP-98,PP-98,PP-98,-8.078230221999945,-79.00702330799999,0,
PP-99,PP-99,PP-99,-8.075464451999949,-79.00570035599998,0,
PP-100,PP-100,PP-100,-8.075419806999946,-79.00574206799996,0,
PP-101,PP-101,PP-101,-8.072433845999967,-79.00427297799996,0,
PP-102,PP-102,PP-102,-8.072409982999943,-79.00436253099997,0,
PP-103,PP-103,PP-103,-8.069913103999966,-79.00407738699994,0,
PP-104,PP-104,PP-104,-8.069953589999955,-79.00403918699999,0,
PP-105,PP-105,PP-105,-8.071804704999977,-79.00576483099996,0,
PP-106,PP-106,PP-106,-8.071721836999927,-79.00329765899994,0,
PP-107,PP-107,PP-107,-8.071739397999977,-79.00325426199998,0,
PP-108,PP-108,PP-108,-8.069303006999974,-79.00216097099997,0,
PP-109,PP-109,PP-109,-8.069309811999972,-79.00220309699995,0,
PP-110,PP-110,PP-110,-8.066531267999949,-79.00223661199999,0,
PP-111,PP-111,PP-111,-8.066473081999959,-79.00229334199997,0,
PP-112,PP-112,PP-112,-8.077835025999946,-78.99698455499998,0,
PP-113,PP-113,PP-113,-8.07790463699996,-78.99696091099997,0,
PP-114,PP-114,PP-114,-8.07872045199997,-78.99427421099995,0,
PP-115,PP-115,PP-115,-8.078772479999941,-78.99426525099994,0,
PP-116,PP-116,PP-116,-8.078690974999972,-79.00192523499999,0,
PP-117,PP-117,PP-117,-8.078623138999944,-79.00184221899997,0,
PP-118,PP-118,PP-118,-8.076209792999975,-79.00166442099999,0,
PP-119,PP-119,PP-119,-8.076252581999938,-79.00166110899994,0,
PP-120,PP-120,PP-120,-8.077916579999965,-78.99992555999995,0,
PP-121,PP-121,PP-121,-8.07855686299996,-79.00344278299997,0,
PP-122,PP-122,PP-122,-8.075243857999965,-79.00496727899997,0,
PP-123,PP-123,PP-123,-8.075017142999968,-79.00523882899995,0,
PP-125,PP-125,PP-125,-8.073977980999928,-79.00775902799995,0,
PP-126,PP-126,PP-126,-8.074965928999973,-79.00706938299999,0,
PP-127,PP-127,PP-127,-8.078532522999978,-79.00899518899996,0,
PP-128,PP-128,PP-128,-8.075970508999944,-79.00817428699997,0,
PP-129,PP-129,PP-129,-8.076108017999957,-79.00785448099998,0,
PP-130,PP-130,PP-130,-8.07470197799995,-79.01066110499994,0,
PP-131,PP-131,PP-131,-8.074734576999958,-79.01050869999995,0,
PP-133,PP-133,PP-133,-8.07250720199994,-79.01085218699995,0,
PP-134,PP-134,PP-134,-8.069835743999931,-79.01203012499997,0,
PP-135,PP-135,PP-135,-8.069823909999968,-79.01200769999997,0,
PP-137,PP-137,PP-137,-8.070222848999947,-79.01273233899997,0,
PP-138,PP-138,PP-138,-8.069194645999971,-79.01075177999996,0,
PP-139,PP-139,PP-139,-8.069192821999934,-79.01072055299994,0,
PP-140,PP-140,PP-140,-8.071697823999955,-79.00637375499997,0,
PP-141,PP-141,PP-141,-8.07169698399997,-79.00633311199994,0,
PP-142,PP-142,PP-142,-8.068616212999927,-79.00638561999995,0,
PP-143,PP-143,PP-143,-8.068635238999946,-79.00644239799999,0,
PP-144,PP-144,PP-144,-8.086179620999928,-79.00885741399998,0,
PP-145,PP-145,PP-145,-8.086387841999965,-79.00597457199996,0,
PP-146,PP-146,PP-146,-8.085578786999974,-79.01220073499996,0,
PP-147,PP-147,PP-147,-8.073236165999958,-78.99952995299998,0,
PP-148,PP-148,PP-148,-8.073330673999976,-78.99955438399996,0,
PP-149,PP-149,PP-149,-8.072474158999967,-79.00267430799994,0,
PP-150,PP-150,PP-150,-8.072565768999937,-79.00270517299998,0,
PP-151,PP-151,PP-151,-8.066872485999966,-79.00410053599995,0,
PP-152,PP-152,PP-152,-8.067796175999945,-79.00428177599997,0,
PP-153,PP-153,PP-153,-8.067776200999958,-79.00434565099994,0,
PP-154,PP-154,PP-154,-8.069642451999925,-78.99540093599995,0,
PP-155,PP-155,PP-155,-8.069498626999973,-78.99539444099997,0,
PP-156,PP-156,PP-156,-8.06854592999997,-78.99381299499998,0,
PP-157,PP-157,PP-157,-8.068556759999979,-78.99377963499995,0,
PP-158,PP-158,PP-158,-8.065590957999973,-78.99324551399997,0,
PP-159,PP-159,PP-159,-8.06557782599998,-78.99327189599995,0,
PP-160,PP-160,PP-160,-8.066611829999943,-78.99415213699996,0,
PP-161,PP-161,PP-161,-8.06656540399996,-78.99421562099997,0,
PP-162,PP-162,PP-162,-8.07442944199994,-78.99633169699996,0,
PP-163,PP-163,PP-163,-8.075590273999978,-78.99343286299995,0,
PP-164,PP-164,PP-164,-8.072284589999981,-78.99272185899997,0,
PP-165,PP-165,PP-165,-8.072334051999974,-78.99272807899996,0,
PP-166,PP-166,PP-166,-8.071102764999978,-78.99565195599996,0,
PP-167,PP-167,PP-167,-8.071151011999973,-78.99567966999996,0,
PP-168,PP-168,PP-168,-8.071160691999978,-78.99226519399997,0,
PP-169,PP-169,PP-169,-8.071211023999979,-78.99226073099999,0,
PP-170,PP-170,PP-170,-8.08372387199995,-78.99754988399997,0,
PP-171,PP-171,PP-171,-8.083725579999964,-78.99748702399995,0,
PP-172,PP-172,PP-172,-8.072931148999942,-78.99806213499994,0,
PP-174,PP-174,PP-174,-8.074784207999926,-79.00125928299997,0,
PP-175,PP-175,PP-175,-8.074857364999957,-79.00124887299995,0,
PP-176,PP-176,PP-176,-8.083164059999945,-79.01386803999998,0,
PP-177,PP-177,PP-177,-8.08038107799996,-79.01205648099995,0,
PP-178,PP-178,PP-178,-8.07719162899997,-79.01226252199996,0,
PP-179,PP-179,PP-179,-8.077159335999966,-79.01228644399998,0,
PP-181,PP-181,PP-181,-8.071781559999977,-79.01460004899997,0,
PP-182,PP-182,PP-182,-8.071723773999963,-79.01468380099999,0,
PP-183,PP-183,PP-183,-8.071692715999973,-79.01751003699997,0,
PP-184,PP-184,PP-184,-8.071708666999939,-79.01743994499998,0,
PP-185,PP-185,PP-185,-8.071792846999926,-79.01972676399998,0,
PP-186,PP-186,PP-186,-8.071482450999952,-79.01796809499996,0,
PP-187,PP-187,PP-187,-8.070939739999972,-79.01571509099995,0,
PP-191,PP-191,PP-191,-8.069123021999928,-79.01661399199998,0,
PP-192,PP-192,PP-192,-8.069161085999951,-79.01670999399994,0,
PFM-2,PFM-2,PFM-2,-8.080300671999964,-79.01220484199996,0,
PFM-3,PFM-3,PFM-3,-8.07285952799998,-79.02092037199998,0,
PFM-5,PFM-5,PFM-5,-8.087626801999932,-79.03007444699995,0,
PFM-7,PFM-7,PFM-7,-8.073815091999961,-79.02518726299996,0,
PFM-8,PFM-8,PFM-8,-8.073721966999926,-79.02526570499998,0,
PFM-9,PFM-9,PFM-9,-8.080439574999957,-79.02452553499995,0,
PFM-10,PFM-10,PFM-10,-8.08036209599993,-79.02458854299994,0,
PFM-11,PFM-11,PFM-11,-8.083128636999959,-79.02422085299997,0,
PFM-12,PFM-12,PFM-12,-8.083051950999959,-79.02429256099998,0,
PFM-13,PFM-13,PFM-13,-8.08592111799993,-79.02388619299995,0,
PFM-14,PFM-14,PFM-14,-8.085836173999951,-79.02392697199997,0,
PFM-15,PFM-15,PFM-15,-8.07765939099994,-79.02487835599999,0,
PFM-16,PFM-16,PFM-16,-8.076133023999944,-79.02037717799999,0,
PFM-17,PFM-17,PFM-17,-8.07970426099996,-79.01967206799998,0,
PFM-18,PFM-18,PFM-18,-8.083913477999943,-79.01872867599997,0,
PFM-19,PFM-19,PFM-19,-8.07764719599993,-79.02493827399996,0,
PFM-20,PFM-20,PFM-20,-8.081928967999943,-79.02948341199993,0,
PFM-21,PFM-21,PFM-21,-8.081523652999977,-79.02558821399998,0,
PFM-22,PFM-22,PFM-22,-8.075342071999955,-79.01367484899998,0,
PFM-23,PFM-23,PFM-23,-8.075249411999948,-79.01375163699998,0,
PFM-24,PFM-24,PFM-24,-8.085779593999973,-79.01657878499998,0,
PFM-25,PFM-25,PFM-25,-8.087212582999939,-79.02631574199995,0,
PFM-26,PFM-26,PFM-26,-8.08674005499995,-79.02266656099994,0,
PFM-27,PFM-27,PFM-27,-8.086301412999944,-79.01995505099995,0,
PFM-28,PFM-28,PFM-28,-8.083740908999971,-79.01885005199995,0,
PFM-29,PFM-29,PFM-29,-8.084568058999935,-79.02327407299998,0,
PFM-30,PFM-30,PFM-30,-8.079600494999966,-79.01977621199995,0,
PFM-31,PFM-31,PFM-31,-8.085892506999926,-79.01665890299995,0,
PFM-32,PFM-32,PFM-32,-8.087292275999971,-79.02636115999996,0,
PFM-33,PFM-33,PFM-33,-8.086832254999933,-79.02273152399994,0,
PFM-34,PFM-34,PFM-34,-8.086409957999933,-79.02004425499996,0,
PFM-35,PFM-35,PFM-35,-8.07882768099995,-79.02639123899996,0,
PFM-36,PFM-36,PFM-36,-8.078862588999925,-79.02633186299994,0,
PFM-37,PFM-37,PFM-37,-8.07837825799993,-79.01756738599994,0,
PFM-38,PFM-38,PFM-38,-8.078272727999945,-79.01753145399994,0,
PFM-39,PFM-39,PFM-39,-8.08869502899995,-79.02652226599997,0,
PFM-40,PFM-40,PFM-40,-8.088701252999954,-79.02655133699994,0,
PFM-41,PFM-41,PFM-41,-8.086364853999953,-79.02679865899995,0,
PFM-42,PFM-42,PFM-42,-8.084186667999973,-79.02708516499996,0,
PFM-43,PFM-43,PFM-43,-8.082184396999935,-79.02731564499999,0,
PFM-44,PFM-44,PFM-44,-8.079961387999958,-79.02762297699996,0,
PFM-45,PFM-45,PFM-45,-8.086373249999951,-79.02683751799998,0,
PFM-46,PFM-46,PFM-46,-8.084213255999941,-79.02712833399994,0,
PFM-47,PFM-47,PFM-47,-8.082201147999967,-79.02735297199996,0,
PFM-48,PFM-48,PFM-48,-8.079993464999973,-79.02769829699997,0,
PFM-49,PFM-49,PFM-49,-8.080581931999973,-79.03032997599996,0,
PFM-50,PFM-50,PFM-50,-8.080288241999938,-79.02719396099997,0,
PFM-51,PFM-51,PFM-51,-8.079952033999973,-79.02345448899996,0,
PFM-52,PFM-52,PFM-52,-8.080564875999926,-79.03035882699999,0,
PFM-53,PFM-53,PFM-53,-8.080247147999955,-79.02714962699997,0,
PFM-54,PFM-54,PFM-54,-8.079893411999933,-79.02339736799996,0,
PFM-55,PFM-55,PFM-55,-8.07700297699995,-79.01582615299998,0,
PFM-56,PFM-56,PFM-56,-8.077004666999926,-79.01575134699993,0,
PFM-57,PFM-57,PFM-57,-8.076215641999966,-79.01710327899997,0,
PFM-58,PFM-58,PFM-58,-8.076291829999946,-79.01715289099997,0,
PFM-59,PFM-59,PFM-59,-8.07448941299998,-79.01737261399995,0,
PFM-60,PFM-60,PFM-60,-8.074513115999935,-79.01734466699997,0,
PFM-61,PFM-61,PFM-61,-8.074730123999927,-79.01673760799997,0,
PFM-62,PFM-62,PFM-62,-8.074696074999963,-79.01665677199998,0,
PFM-63,PFM-63,PFM-63,-8.084529182999972,-79.02334457199998,0,
PFM-64,PFM-64,PFM-64,-8.083650482999928,-79.02532880899997,0,
PFM-65,PFM-65,PFM-65,-8.083699601999967,-79.02532015699995,0,
PFM-66,PFM-66,PFM-66,-8.083864714999947,-79.02807797899999,0,
PFM-67,PFM-67,PFM-67,-8.08390122399993,-79.02796638399997,0,
PFM-68,PFM-68,PFM-68,-8.083003049999945,-79.03042281899997,0,
PFM-69,PFM-69,PFM-69,-8.083047326999974,-79.03047858699995,0,
PFM-70,PFM-70,PFM-70,-8.084638844999972,-79.02558365099998,0,
PFM-71,PFM-71,PFM-71,-8.084666037999966,-79.02555542199997,0,
PFM-72,PFM-72,PFM-72,-8.087879480999959,-79.02512832999997,0,
PFM-73,PFM-73,PFM-73,-8.087864293999928,-79.02516024199997,0,
PFM-74,PFM-74,PFM-74,-8.084097458999963,-79.02140653999999,0,
PFM-75,PFM-75,PFM-75,-8.084025973999928,-79.02146749399998,0,
PFM-76,PFM-76,PFM-76,-8.080781129999934,-79.02205433499995,0,
PFM-77,PFM-77,PFM-77,-8.080712625999979,-79.02211304299993,0,
PFM-78,PFM-78,PFM-78,-8.080862339999953,-79.02564177799997,0,
PFM-79,PFM-79,PFM-79,-8.080823816999953,-79.02557013899997,0,
PFM-80,PFM-80,PFM-80,-8.08120417899994,-79.02940887999995,0,
PFM-81,PFM-81,PFM-81,-8.081222056999934,-79.02936503499996,0,
PFM-82,PFM-82,PFM-82,-8.078906795999956,-79.02945293499994,0,
PFM-83,PFM-83,PFM-83,-8.078944468999964,-79.02941199999998,0,
PFM-84,PFM-84,PFM-84,-8.079796639999927,-79.03081567499999,0,
PFM-85,PFM-85,PFM-85,-8.079807078999977,-79.03085835399997,0,
PFM-86,PFM-86,PFM-86,-8.076137426999935,-79.02806038999995,0,
PFM-87,PFM-87,PFM-87,-8.076104638999936,-79.02808687299995,0,
PFM-88,PFM-88,PFM-88,-8.072702122999942,-79.02754224399996,0,
PFM-89,PFM-89,PFM-89,-8.072729988999981,-79.02758986699996,0,
PFM-90,PFM-90,PFM-90,-8.078077417999964,-79.02960143899998,0,
PFM-91,PFM-91,PFM-91,-8.078096238999933,-79.02956369399999,0,
PFM-92,PFM-92,PFM-92,-8.075614493999979,-79.03004110499995,0,
PFM-93,PFM-93,PFM-93,-8.07561943099995,-79.03007497699997,0,
PFM-94,PFM-94,PFM-94,-8.07280572999997,-79.02946476399995,0,
PFM-95,PFM-95,PFM-95,-8.072798417999934,-79.02949139399999,0,
PFM-96,PFM-96,PFM-96,-8.075759438999967,-79.02577137599997,0,
PFM-97,PFM-97,PFM-97,-8.072669937999933,-79.02607201999996,0,
PFM-98,PFM-98,PFM-98,-8.07094389699995,-79.02634257399995,0,
PFM-99,PFM-99,PFM-99,-8.075278405999939,-79.02291721499995,0,
PFM-100,PFM-100,PFM-100,-8.075199016999932,-79.02293285299999,0,
PFM-101,PFM-101,PFM-101,-8.080545504999975,-79.01894968299996,0,
PFM-102,PFM-102,PFM-102,-8.079603603999942,-79.01582079699995,0,
PFM-103,PFM-103,PFM-103,-8.07967515599995,-79.01579819399996,0,
PFM-104,PFM-104,PFM-104,-8.08065533599995,-79.01901317799997,0,
PFM-105,PFM-105,PFM-105,-8.076868136999963,-79.02261642699995,0,
PFM-106,PFM-106,PFM-106,-8.076897624999958,-79.02251133799996,0,
ESP-1,ESP-1,ESP-1,-8.111157540903863,-79.03279300754362,0,
ESP-2,ESP-2,ESP-2,-8.112958605291801,-79.03269950781224,0,
ESP-3,ESP-3,ESP-3,-8.115472165379344,-79.03130605863205,0,
ESP-4,ESP-4,ESP-4,-8.116218323095913,-79.03042662529191,0,
ESP-5,ESP-5,ESP-5,-8.114449198646046,-79.03237257310606,0,
ESP-6,ESP-6,ESP-6,-8.116416807992143,-79.02883808777436,0,
ESP-7,ESP-7,ESP-7,-8.116501781092737,-79.02828991335447,0,
ESP-8,ESP-8,ESP-8,-8.108261836940779,-79.0216366924559,0,
ESP-9,ESP-9,ESP-9,-8.107882118390009,-79.02196090992871,0,
ESP-10,ESP-10,ESP-10,-8.107279013303891,-79.02207456802454,0,
ESP-11,ESP-11,ESP-11,-8.107067902732153,-79.0225362392202,0,
ESP-12,ESP-12,ESP-12,-8.105760111376734,-79.02391490008478,0,
ESP-13,ESP-13,ESP-13,-8.105637637165461,-79.02454420607502,0,
ESP-14,ESP-14,ESP-14,-8.105614731016711,-79.02755566076272,0,
ESP-15,ESP-15,ESP-15,-8.105874958957706,-79.02779336682703,0,
AMN-16,AMN-16,AMN-16,-8.099488975250042,-79.01385795439307,0,
AMN-17,AMN-17,AMN-17,-8.09890336365972,-79.01498494541741,0,
AMN-18,AMN-18,AMN-18,-8.097679619301598,-79.0159996973597,0,
AMN-19,AMN-19,AMN-19,-8.09663269836025,-79.01758555494858,0,
AMN-20,AMN-20,AMN-20,-8.096006733337848,-79.01801957924911,0,
AMN-21,AMN-21,AMN-21,-8.096948367356445,-79.02895175125963,0,
AMN-22,AMN-22,AMN-22,-8.096112910163194,-79.02842518186254,0,
AMN-23,AMN-23,AMN-23,-8.09831746478325,-79.0305375801398,0,
AMN-25,AMN-25,AMN-25,-8.100879306159648,-79.03200157321396,0,
AMN-26,AMN-26,AMN-26,-8.102741274123577,-79.03273388267702,0,
AMN-27,AMN-27,AMN-27,-8.103499492995548,-79.03337939062835,0,
AMN-28,AMN-28,AMN-28,-8.104794874044975,-79.03382297929963,0,
AMN-29,AMN-29,AMN-29,-8.09562859066377,-79.01967198045645,0,
AMN-30,AMN-30,AMN-30,-8.09507725287481,-79.02046255758998,0,
AMN-31,AMN-31,AMN-31,-8.095166327930919,-79.02091199845405,0,
AMN-32,AMN-32,AMN-32,-8.094045763656878,-79.02331644917983,0,
AMN-33,AMN-33,AMN-33,-8.093962939271547,-79.02405269354286,0,
AMN-34,AMN-34,AMN-34,-8.093973425186922,-79.02609844166109,0,
AMN-35,AMN-35,AMN-35,-8.095001239943443,-79.02699071466455,0,
AMS-36,AMS-36,AMS-36,-8.126091761999596,-79.02796469578601,0,
AMS-37,AMS-37,AMS-37,-8.124507006523599,-79.02463674315543,0,
AMS-38,AMS-38,AMS-38,-8.12430740701776,-79.02394105089095,0,
AMS-39,AMS-39,AMS-39,-8.126324432738704,-79.03435338495179,0,
AMS-40,AMS-40,AMS-40,-8.116403861714803,-79.01644863111991,0,
AMS-41,AMS-41,AMS-41,-8.115135938176833,-79.01529308342322,0,
AMS-43,AMS-43,AMS-43,-8.120965053553324,-79.04007185560504,0,
AMS-44,AMS-44,AMS-44,-8.123519781167854,-79.03902445231545,0,
AMS-45,AMS-45,AMS-45,-8.123624006872035,-79.03920616837436,0,
AMS-46,AMS-46,AMS-46,-8.125034772193365,-79.03764788587566,0,
AMS-47,AMS-47,AMS-47,-8.124768105418356,-79.0377765542066,0,
AMS-48,AMS-48,AMS-48,-8.12605362880348,-79.03426733877811,0,
AMS-49,AMS-49,AMS-49,-8.126828185835674,-79.03106837134305,0,
AMS-50,AMS-50,AMS-50,-8.12661849306652,-79.03109406108483,0,
AMS-51,AMS-51,AMS-51,-8.126563979163596,-79.02883821939909,0,
AMS-52,AMS-52,AMS-52,-8.122025180411594,-79.02134601106692,0,
AMS-53,AMS-53,AMS-53,-8.121137642326863,-79.02073479946799,0,
AMS-54,AMS-54,AMS-54,-8.120226097618827,-79.0194521139369,0,
AMS-55,AMS-55,AMS-55,-8.118928105237815,-79.01857962799266,0,
AMS-56,AMS-56,AMS-56,-8.117874684607465,-79.01740398192338,0,
AMS-57,AMS-57,AMS-57,-8.122784002997976,-79.02249837350901,0,
AMS-58,AMS-58,AMS-58,-8.100266363686867,-79.01285916974378,0,
AMS-59,AMS-59,AMS-59,-8.100500044807369,-79.01308548056222,0,
AMS-60,AMS-60,AMS-60,-8.104291004228262,-79.01031676838556,0,
AMS-61,AMS-61,AMS-61,-8.112025187840045,-79.01360801397566,0,
AMS-62,AMS-62,AMS-62,-8.113926007836605,-79.01474596313889,0,
AMS-63,AMS-63,AMS-63,-8.104175160142061,-79.01061449304444,0,
AMS-64,AMS-64,AMS-64,-8.111531943465167,-79.01357665332594,0,
AMS-65,AMS-65,AMS-65,-8.109414943273398,-79.0123163568563,0,
AMS-66,AMS-66,AMS-66,-8.108906830806852,-79.01233931857978,0,
AMEO-67,AMEO-67,AMEO-67,-8.102012000241896,-79.04451158176389,0,
AMEO-68,AMEO-68,AMEO-68,-8.10309905566707,-79.04559753575518,0,
AMEO-69,AMEO-69,AMEO-69,-8.104766327879442,-79.04610515064677,0,
AMEO-70,AMEO-70,AMEO-70,-8.106193651204851,-79.04677538511051,0,
AMEO-71,AMEO-71,AMEO-71,-8.109896879665627,-79.04774644896432,0,
AMEO-72,AMEO-72,AMEO-72,-8.107240171651982,-79.04679815783801,0,
AMEO-73,AMEO-73,AMEO-73,-8.110663307507783,-79.04769703742545,0,
AMEO-74,AMEO-74,AMEO-74,-8.11286763582102,-79.04799510554125,0,
AMEO-75,AMEO-75,AMEO-75,-8.1145723366746,-79.04647227207555,0,
AMEO-76,AMEO-76,AMEO-76,-8.114426214695195,-79.04628916266955,0,
AMEO-77,AMEO-77,AMEO-77,-8.117152731714405,-79.04309704735,0,
AMEO-78,AMEO-78,AMEO-78,-8.118870060762694,-79.04099358947589,0,
AMEO-79,AMEO-79,AMEO-79,-8.117448742073385,-79.04308397490813,0,
AMEO-80,AMEO-80,AMEO-80,-8.119068820998633,-79.04115848032392,0,
AMEO-82,AMEO-82,AMEO-82,-8.096135205586307,-79.04108700971169,0,
AMEO-83,AMEO-83,AMEO-83,-8.100205599455945,-79.04385572719387,0,
AMEO-84,AMEO-84,AMEO-84,-8.097213266532107,-79.04282246831075,0,
AMEO-85,AMEO-85,AMEO-85,-8.097865828531443,-79.04305011439605,0,
AMEO-86,AMEO-86,AMEO-86,-8.099876346480077,-79.04397614588675,0,
PACALS-87,PACALS-87,PACALS-87,-8.094367224712277,-79.03784528471728,0,
PACALS-88,PACALS-88,PACALS-88,-8.093208435308291,-79.03598756425676,0,
PACALS-89,PACALS-89,PACALS-89,-8.094299680195567,-79.0382243983212,0,
PACALS-90,PACALS-90,PACALS-90,-8.092914352330745,-79.0359181322543,0,
VLHT-91,VLHT-91,VLHT-91,-8.116663820158115,-79.03180937952007,0,
VLHT-92,VLHT-92,VLHT-92,-8.116880164367654,-79.0323048497156,0,
VLHT-93,VLHT-93,VLHT-93,-8.119134869360918,-79.03422161945365,0,
VLHT-94,VLHT-94,VLHT-94,-8.119945076557412,-79.03464674676243,0,
VLHT-95,VLHT-95,VLHT-95,-8.122376347554235,-79.03704565341691,0,
VLHT-96,VLHT-96,VLHT-96,-8.123015938793326,-79.03734606045904,0,
VLHT-97,VLHT-97,VLHT-97,-8.125145819931104,-79.03945192823828,0,
VLHT-98,VLHT-98,VLHT-98,-8.125936810236329,-79.03980677325815,0,
VLHT-99,VLHT-99,VLHT-99,-8.128295303315962,-79.04214452505371,0,
MANT-100,MANT-100,MANT-100,-8.103936334018858,-79.03734747799294,0,
MANT-101,MANT-101,MANT-101,-8.102650057712449,-79.03985222762007,0,
MANT-103,MANT-103,MANT-103,-8.104271405825923,-79.03643679288575,0,
MANT-105,MANT-105,MANT-105,-8.101197180608862,-79.04586810405563,0,
MANT-108,MANT-108,MANT-108,-8.101828490079411,-79.04319638298934,0,
MANT-110,MANT-110,MANT-110,-8.10071046095948,-79.0510691670251,0,
MANT-111,MANT-111,MANT-111,-8.100886403666987,-79.04907756689802,0,
MANT-113,MANT-113,MANT-113,-8.10097180108139,-79.05510830848858,0,
MANT-114,MANT-114,MANT-114,-8.100727506920926,-79.04880691808907,0,
TUPAT-116,TUPAT-116,TUPAT-116,-8.101758699555893,-79.02552562062189,0,
TUPAT-117,TUPAT-117,TUPAT-117,-8.09943532221329,-79.02794244145133,0,
TUPAT-119,TUPAT-119,TUPAT-119,-8.096963386730364,-79.03012057027301,0,
TUPAT-120,TUPAT-120,TUPAT-120,-8.096864386588585,-79.0306038884051,0,
TUPAT-121,TUPAT-121,TUPAT-121,-8.09391500213227,-79.03361752959421,0,
TUPAT-122,TUPAT-122,TUPAT-122,-8.094273155079348,-79.03289915129365,0,
TUPAT-124,TUPAT-124,TUPAT-124,-8.091351219301977,-79.03626065454138,0,
TUPAT-125,TUPAT-125,TUPAT-125,-8.089159126115316,-79.03812471864839,0,
TUPAT-126,TUPAT-126,TUPAT-126,-8.087555392510065,-79.04026132380805,0,
JPT-127,JPT-127,JPT-127,-8.115994941329067,-79.03754856270656,0,
JPT-128,JPT-128,JPT-128,-8.115514988636031,-79.03680056449497,0,
JPT-129,JPT-129,JPT-129,-8.1135319783798,-79.03503768885624,0,
JPT-130,JPT-130,JPT-130,-8.118037368381906,-79.03897557349283,0,
JPT-131,JPT-131,JPT-131,-8.117924047457054,-79.03918202975038,0,
JPT-132,JPT-132,JPT-132,-8.123317320925675,-79.04384739267668,0,
JPT-133,JPT-133,JPT-133,-8.120495394651451,-79.04142133988941,0,
JPT-134,JPT-134,JPT-134,-8.12064475048898,-79.04126912189702,0,
JPT-135,JPT-135,JPT-135,-8.12343716757345,-79.04363457917816,0,
JPT-136,JPT-136,JPT-136,-8.125770264822329,-79.04563197343043,0,
JPT-137,JPT-137,JPT-137,-8.111732755846294,-79.0336570111902,0,
JPT-138,JPT-138,JPT-138,-8.112164587752765,-79.03425280764091,0,
JPT-139,JPT-139,JPT-139,-8.113598819682144,-79.03546049326494,0,
JEN-140,JEN-140,JEN-140,-8.11292535145817,-79.0342058646311,0,
JEN-141,JEN-141,JEN-141,-8.111255654141887,-79.03640683260753,0,
JEN-142,JEN-142,JEN-142,-8.110903620926642,-79.03663727768085,0,
JEN-144,JEN-144,JEN-144,-8.109394939005654,-79.03969050965942,0,
JEN-145,JEN-145,JEN-145,-8.108616698860361,-79.04134515077442,0,
JEN-146,JEN-146,JEN-146,-8.108478003218725,-79.04219209110443,0,
JEN-147,JEN-147,JEN-147,-8.107820448545953,-79.043575386382,0,
JEN-148,JEN-148,JEN-148,-8.107603297244173,-79.04465075947302,0,
JEN-150,JEN-150,JEN-150,-8.102341919770081,-79.05123393213593,0,
MRFT-151,MRFT-151,MRFT-151,-8.085887179101768,-79.01473164113787,0,
MRFT-152,MRFT-152,MRFT-152,-8.087667724748929,-79.01535898077373,0,
MRFT-153,MRFT-153,MRFT-153,-8.087977723505082,-79.01582767746747,0,
MRFT-154,MRFT-154,MRFT-154,-8.090294033284763,-79.01671584970451,0,
MRFT-155,MRFT-155,MRFT-155,-8.090903471307605,-79.01731833858476,0,
MRFT-157,MRFT-157,MRFT-157,-8.093147370919583,-79.01844352853303,0,
MRFT-158,MRFT-158,MRFT-158,-8.095218653617971,-79.01900779232462,0,
MRFT-159,MRFT-159,MRFT-159,-8.09583107023397,-79.01952009797384,0,
MRFT-160,MRFT-160,MRFT-160,-8.097972644449117,-79.0202265184093,0,
MRFT-161,MRFT-161,MRFT-161,-8.09822539693071,-79.0205477907252,0,
MRFT-162,MRFT-162,MRFT-162,-8.10043298733711,-79.02155126784554,0,
MRFT-163,MRFT-163,MRFT-163,-8.100837280258222,-79.0220679102546,0,
MRFT-164,MRFT-164,MRFT-164,-8.102700375530713,-79.02346199658898,0,
MRFT-165,MRFT-165,MRFT-165,-8.102952670066784,-79.02373753805652,0,
MRFT-166,MRFT-166,MRFT-166,-8.104683355970552,-79.02500047401813,0,
IN-167,IN-167,IN-167,-8.117565022047078,-79.02423125181582,0,
IN-168,IN-168,IN-168,-8.117219168817817,-79.02412730951005,0,
IN-169,IN-169,IN-169,-8.115362842373305,-79.02210740551274,0,
IN-170,IN-170,IN-170,-8.115047145879457,-79.02201614527674,0,
IN-171,IN-171,IN-171,-8.113093271454696,-79.0201808417875,0,
CEV-172,CEV-172,CEV-172,-8.112785782954903,-79.0196636788307,0,
CEV-173,CEV-173,CEV-173,-8.10404405349706,-79.01209976219067,0,
CEV-174,CEV-174,CEV-174,-8.104387265149976,-79.01260938422801,0,
CEV-175,CEV-175,CEV-175,-8.106150132166112,-79.0138854446137,0,
CEV-176,CEV-176,CEV-176,-8.10673837110707,-79.01457164470978,0,
CEV-177,CEV-177,CEV-177,-8.108018541933058,-79.01549544092236,0,
CEV-178,CEV-178,CEV-178,-8.107915640380009,-79.01563358013416,0,
CEV-179,CEV-179,CEV-179,-8.110476433410678,-79.01763953344813,0,
CEV-180,CEV-180,CEV-180,-8.096270887556589,-79.00546197084135,0,
CEV-181,CEV-181,CEV-181,-8.09934325723236,-79.0080925416857,0,
CEV-182,CEV-182,CEV-182,-8.102125836309503,-79.01038817741843,0,
CEV-183,CEV-183,CEV-183,-8.110688573201093,-79.01810230231133,0,
CEV-184,CEV-184,CEV-184,-8.095959862816352,-79.00553673411972,0,
CEV-185,CEV-185,CEV-185,-8.09911140969774,-79.00820323672463,0,
CEV-186,CEV-186,CEV-186,-8.101761377094395,-79.01040628751693,0,
CEV-187,CEV-187,CEV-187,-8.089378542336428,-78.9996425837275,0,
CEV-188,CEV-188,CEV-188,-8.092977420349923,-79.00266275063312,0,
CEV-189,CEV-189,CEV-189,-8.08905689773269,-78.9997599263881,0,
CEV-190,CEV-190,CEV-190,-8.090863308116655,-79.002788812651,0,
CEV-191,CEV-191,CEV-191,-8.092525790230082,-79.0038956117434,0,
PCVT-192,PCVT-192,PCVT-192,-8.127425866624723,-79.03019810573304,0,
PCVT-193,PCVT-193,PCVT-193,-8.127166122956393,-79.03045625951724,0,
PCVT-195,PCVT-195,PCVT-195,-8.130929811817769,-79.03288247569203,0,
NPT-196,NPT-196,NPT-196,-8.103076676058759,-79.03520966350197,0,
NPT-197,NPT-197,NPT-197,-8.103497818868442,-79.03534041943408,0,
NPT-198,NPT-198,NPT-198,-8.101716423037482,-79.03585458523476,0,
NPT-199,NPT-199,NPT-199,-8.101080809700113,-79.03643972706392,0,
NPT-200,NPT-200,NPT-200,-8.096814940425327,-79.03836328221183,0,
NPT-201,NPT-201,NPT-201,-8.09201045377985,-79.04051135015571,0,
NPT-202,NPT-202,NPT-202,-8.094129908850556,-79.0395749763371,0,
NPT-203,NPT-203,NPT-203,-8.093748573101315,-79.03953861160487,0,
NPT-204,NPT-204,NPT-204,-8.099443618797439,-79.0371447295226,0,
NPT-205,NPT-205,NPT-205,-8.09124951557719,-79.04069812382775,0,
NPT-206,NPT-206,NPT-206,-8.095983808802067,-79.03850545465879,0,
NPT-207,NPT-207,NPT-207,-8.09848382275919,-79.03741592820246,0,
NPT-208,NPT-208,NPT-208,-8.086861494662067,-79.04269160623366,0,
NPT-209,NPT-209,NPT-209,-8.089316448761043,-79.04154943647494,0,
NPT-210,NPT-210,NPT-210,-8.088164637395238,-79.04221694919401,0,
FEVI-212,FEVI-212,FEVI-212,-8.101939620822488,-79.0032481386838,0,
FEVI-213,FEVI-213,FEVI-213,-8.099066609531256,-79.00692311382917,0,
FEVI-216,FEVI-216,FEVI-216,-8.09280299023681,-79.02396583767795,0,
FEVI-217,FEVI-217,FEVI-217,-8.092843321500585,-79.0236339300404,0,
FEVI-219,FEVI-219,FEVI-219,-8.092267423912737,-79.01992067031155,0,
FEVI-220,FEVI-220,FEVI-220,-8.092869156483225,-79.01776951236802,0,
FEVI-222,FEVI-222,FEVI-222,-8.09417218800203,-79.01530123178772,0,
FEVI-224,FEVI-224,FEVI-224,-8.09559674533677,-79.01313526085664,0,
FEVI-225,FEVI-225,FEVI-225,-8.096556538543664,-79.0112736511372,0,
FEVI-226,FEVI-226,FEVI-226,-8.097167792697672,-79.01064460105367,0,
FEVI-227,FEVI-227,FEVI-227,-8.106669560387157,-78.9994892697516,0,
FEVI-228,FEVI-228,FEVI-228,-8.108361971708712,-78.99724961418943,0,
FEVI-229,FEVI-229,FEVI-229,-8.10645361404721,-78.9994737997669,0,
FEVI-230,FEVI-230,FEVI-230,-8.108174674974856,-78.99711666360149,0,
HSJ-231,HSJ-231,HSJ-231,-8.125304139493709,-79.03561268016223,0,
HSJ-232,HSJ-232,HSJ-232,-8.125252026508747,-79.03536289718136,0,
HSJ-233,HSJ-233,HSJ-233,-8.122920687780931,-79.03467390262108,0,
HSJ-234,HSJ-234,HSJ-234,-8.12225686163589,-79.034187088052,0,
HSJ-235,HSJ-235,HSJ-235,-8.120072861703107,-79.0334940733827,0,
HSJ-236,HSJ-236,HSJ-236,-8.11988234800898,-79.0331822621838,0,
PE-237_2,PE-237,PE-237_2,-8.106548768666652,-79.02141038392135,0,
PE-238_2,PE-238,PE-238_2,-8.106244729777185,-79.02135539940525,0,
PE-239_2,PE-239,PE-239_2,-8.104714878764824,-79.01947181745722,0,
PE-240_2,PE-240,PE-240_2,-8.104274935030265,-79.01934005535834,0,
PE-241_2,PE-241,PE-241_2,-8.102961631461191,-79.01764657634833,0,
PE-242_2,PE-242,PE-242_2,-8.10237478651502,-79.01731096419032,0,
PE-243_2,PE-243,PE-243_2,-8.100981343854592,-79.01557825059034,0,
PE-244_2,PE-244,PE-244_2,-8.100507178299653,-79.01531554218745,0,
PE-245_2,PE-245,PE-245_2,-8.099314046910184,-79.01383951712717,0,
PE-246_2,PE-246,PE-246_2,-8.097709027881505,-79.01238731116985,0,
PE-247_2,PE-247,PE-247_2,-8.097184912065504,-79.0117809217789,0,
EGR-248,EGR-248,EGR-248,-8.12138622994812,-79.007177060631,0,
EGR-249,EGR-249,EGR-249,-8.120853196505179,-79.00742903010097,0,
EGR-250,EGR-250,EGR-250,-8.1203865224046,-79.00846671178775,0,
EGR-251,EGR-251,EGR-251,-8.11984815750526,-79.00876745719147,0,
EGR-252,EGR-252,EGR-252,-8.118924439492549,-79.0102077988687,0,
EGR-253,EGR-253,EGR-253,-8.118618416674549,-79.01029799184536,0,
EGR-254,EGR-254,EGR-254,-8.117611714148712,-79.01165015725023,0,
EGR-255,EGR-255,EGR-255,-8.117319287680834,-79.0116183113281,0,
EGR-256,EGR-256,EGR-256,-8.116405518755435,-79.01283468858011,0,
EGR-257,EGR-257,EGR-257,-8.116190436607166,-79.01287056338249,0,
EGR-258,EGR-258,EGR-258,-8.115403130471849,-79.01458449932208,0,
EGR-259,EGR-259,EGR-259,-8.115082162966573,-79.01464149496293,0,
EGR-260,EGR-260,EGR-260,-8.114668923552026,-79.01552226080891,0,
EGR-262,EGR-262,EGR-262,-8.113277089237227,-79.0171934023009,0,
EGR-263,EGR-263,EGR-263,-8.111385722310798,-79.01943847020428,0,
EGR-265,EGR-265,EGR-265,-8.109236703501589,-79.02112237896706,0,
EGR-266,EGR-266,EGR-266,-8.109144237157194,-79.02102140988232,0,
SAN-268,SAN-268,SAN-268,-8.099926036662856,-79.01709303574302,0,
SAN-269,SAN-269,SAN-269,-8.101294558693787,-79.01839605832023,0,
SAN-270,SAN-270,SAN-270,-8.101562271294076,-79.0183817490079,0,
SAN-271,SAN-271,SAN-271,-8.102652191916949,-79.01969119618506,0,
PSAN-273,PSAN-273,PSAN-273,-8.086827853667238,-79.01130957173572,0,
PSAN-274,PSAN-274,PSAN-274,-8.089551822650167,-79.01256446086073,0,
PSAN-276,PSAN-276,PSAN-276,-8.089691117060047,-79.01286028843091,0,
PSAN-277,PSAN-277,PSAN-277,-8.091855131969831,-79.01386805009342,0,
PSAN-278,PSAN-278,PSAN-278,-8.092036069475062,-79.0141219753277,0,
PSAN-279,PSAN-279,PSAN-279,-8.094575883692304,-79.01532407436294,0,
PSAN-281,PSAN-281,PSAN-281,-8.097148735461866,-79.01624820365129,0,
JUN-283,JUN-283,JUN-283,-8.10785630361905,-79.02121326921379,0,
JUN-284,JUN-284,JUN-284,-8.105815272167945,-79.01877446200966,0,
JUN-285,JUN-285,JUN-285,-8.104033513172185,-79.01724759641237,0,
JUN-286,JUN-286,JUN-286,-8.102107644323285,-79.01518095253547,0,
PLUN-287,PLUN-287,PLUN-287,-8.100051603983799,-79.01288525135958,0,
PLUN-288,PLUN-288,PLUN-288,-8.097646781485254,-79.01150333955698,0,
PLUN-289,PLUN-289,PLUN-289,-8.097431384584638,-79.0111519742748,0,
PLUN-290,PLUN-290,PLUN-290,-8.094359994024222,-79.00937837042962,0,
PLUN-291,PLUN-291,PLUN-291,-8.094270015139813,-79.00913156553808,0,
PLUN-292,PLUN-292,PLUN-292,-8.091288857408724,-79.00718294128265,0,
PLUN-293,PLUN-293,PLUN-293,-8.091281580212382,-79.00737006148276,0,
PLUN-295,PLUN-295,PLUN-295,-8.088025219468216,-79.00502376683231,0,
SALVLA-296,SALVLA-296,SALVLA-296,-8.104911706357901,-79.02988046840264,0,
SALVLA-297,SALVLA-297,SALVLA-297,-8.103364474916793,-79.02881343140902,0,
SALVLA-298,SALVLA-298,SALVLA-298,-8.103168420553757,-79.02842335537659,0,
SALVLA-299,SALVLA-299,SALVLA-299,-8.101383642687196,-79.02689449201677,0,
SALVLA-300,SALVLA-300,SALVLA-300,-8.10111345026494,-79.02693472515482,0,
SALVLA-301,SALVLA-301,SALVLA-301,-8.098808189348597,-79.02473498295899,0,
SALVLA-302,SALVLA-302,SALVLA-302,-8.098727523102363,-79.02441771189245,0,
SALVLA-303,SALVLA-303,SALVLA-303,-8.096810941934454,-79.02285206905117,0,
SALVLA-304,SALVLA-304,SALVLA-304,-8.09647502847381,-79.02246717564,0,
CARW-305,CARW-305,CARW-305,-8.115042778763033,-79.00767840918746,0,
CARW-306,CARW-306,CARW-306,-8.11517012390948,-79.00784008415422,0,
CARW-307,CARW-307,CARW-307,-8.114921373441392,-79.01058196454099,0,
CARW-308,CARW-308,CARW-308,-8.114985407074004,-79.01073586922706,0,
CARW-309,CARW-309,CARW-309,-8.114683024309285,-79.01230823902863,0,
CARW-310,CARW-310,CARW-310,-8.114696123870944,-79.0125879293671,0,
CARW-311,CARW-311,CARW-311,-8.114337007391924,-79.01446279339558,0,
CARW-312,CARW-312,CARW-312,-8.114406645563605,-79.01445560226239,0,
HOND-313,HOND-313,HOND-313,-8.103419156072414,-79.00256491122481,0,
HOND-314,HOND-314,HOND-314,-8.103488737478143,-79.00296516320877,0,
HOND-315,HOND-315,HOND-315,-8.10659092740667,-79.00383084956952,0,
HOND-316,HOND-316,HOND-316,-8.106661921116912,-79.00357267757428,0,
HOND-317,HOND-317,HOND-317,-8.108991204824683,-79.0032359248851,0,
HOND-318,HOND-318,HOND-318,-8.10896751246898,-79.00343556205439,0,
RIP-319,RIP-319,RIP-319,-8.111992254947332,-79.0031757538385,0,
RIP-320,RIP-320,RIP-320,-8.111819599387571,-79.00318745589988,0,
RIP-322,RIP-322,RIP-322,-8.112340584179407,-79.00555784801467,0,
RIP-323,RIP-323,RIP-323,-8.112738477088307,-79.00813217939562,0,
RIP-324,RIP-324,RIP-324,-8.112613725290245,-79.00824374957806,0,
RIP-325,RIP-325,RIP-325,-8.113181303625998,-79.01071775618557,0,
RIP-327,RIP-327,RIP-327,-8.113127160354573,-79.01314146781633,0,
RIP-329,RIP-329,RIP-329,-8.1123146129927,-79.01498783293643,0,
RIP-330,RIP-330,RIP-330,-8.11133905412004,-79.01611838160301,0,
RIP-331,RIP-331,RIP-331,-8.110738975302132,-79.01706071587422,0,
COSR-332,COSR-332,COSR-332,-8.122104992505026,-79.02814440177877,0,
COSR-333,COSR-333,COSR-333,-8.125082900737027,-79.03031920884747,0,
COSR-335,COSR-335,COSR-335,-8.126125776538728,-79.03032128859451,0,
COSR-336,COSR-336,COSR-336,-8.119740628296173,-79.0265008826922,0,
COSR-337,COSR-337,COSR-337,-8.119353640441902,-79.02605933666251,0,
TEVA-338,TEVA-338,TEVA-338,-8.095453996602735,-79.02857120742536,0,
TEVA-339,TEVA-339,TEVA-339,-8.095194983791055,-79.0286239928081,0,
TEVA-340,TEVA-340,TEVA-340,-8.094088741757696,-79.0314311151628,0,
PEMU-341,PEMU-341,PEMU-341,-8.108725203844793,-79.03541553435835,0,
PEMU-342,PEMU-342,PEMU-342,-8.107856557297614,-79.03703760307008,0,
PEMU-343,PEMU-343,PEMU-343,-8.1063263827281,-79.04142905399753,0,
PEMU-344,PEMU-344,PEMU-344,-8.107097443962274,-79.0392155582395,0,
PEMU-345,PEMU-345,PEMU-345,-8.106146813004244,-79.04390070582953,0,
ANTO-346,ANTO-346,ANTO-346,-8.116144970807925,-79.04369518600686,0,
ANTO-347,ANTO-347,ANTO-347,-8.113666200647513,-79.04188032743212,0,
ANTO-348,ANTO-348,ANTO-348,-8.113385721775758,-79.04130499534074,0,
ANTO-349,ANTO-349,ANTO-349,-8.111582066422546,-79.04028508414615,0,
ANTO-350,ANTO-350,ANTO-350,-8.11096582915605,-79.03976296573977,0,
MAVE-351,MAVE-351,MAVE-351,-8.101313451837282,-79.03519467743273,0,
MAVE-352,MAVE-352,MAVE-352,-8.102307734711902,-79.03440602261357,0,
MAVE-353,MAVE-353,MAVE-353,-8.102630405511896,-79.03348400691297,0,
MAVE-354,MAVE-354,MAVE-354,-8.103344378551446,-79.03249496384132,0,
MAVE-355,MAVE-355,MAVE-355,-8.104042953418823,-79.0312458547933,0,
MAVE-356,MAVE-356,MAVE-356,-8.104943592320849,-79.0305990220683,0,
MAVE-357,MAVE-357,MAVE-357,-8.106062932201262,-79.02939466674738,0,
MAVE-358,MAVE-358,MAVE-358,-8.105879331983898,-79.02928434222069,0,
ABR-359,ABR-359,ABR-359,-8.099626508696174,-79.00138093560719,0,
ABR-360,ABR-360,ABR-360,-8.10141716521063,-79.00207333717793,0,
ABR-361,ABR-361,ABR-361,-8.097620867201117,-79.00106850786236,0,
ABR-362,ABR-362,ABR-362,-8.09622563401521,-79.0008402174492,0,
ABR-363,ABR-363,ABR-363,-8.094926554385086,-78.99951282577314,0,
ABR-364,ABR-364,ABR-364,-8.094947132252575,-78.99702508327803,0,
ABR-365,ABR-365,ABR-365,-8.09732975536169,-78.99604674460855,0,
ABR-366,ABR-366,ABR-366,-8.098579815167577,-78.99693296986251,0,
ABR-367,ABR-367,ABR-367,-8.100270093829788,-78.99883585520568,0,
ABR-368,ABR-368,ABR-368,-8.102806289507008,-79.00159723690183,0,
ROM-369,ROM-369,ROM-369,-8.106456869973792,-79.03611388986471,0,
ROM-370,ROM-370,ROM-370,-8.106049759332183,-79.03626678169148,0,
ROM-371,ROM-371,ROM-371,-8.107821042343563,-79.03671205494626,0,
ANBE-373,ANBE-373,ANBE-373,-8.114119961390905,-79.00665306288539,0,
ANBE-374,ANBE-374,ANBE-374,-8.114042382151,-79.00659476044332,0,
ANBE-375,ANBE-375,ANBE-375,-8.110952882028108,-79.00708656646853,0,
ANBE-376,ANBE-376,ANBE-376,-8.108663135777787,-79.00748502101933,0,
CONT-377,CONT-377,CONT-377,-8.118266254196195,-79.00540195554525,0,
CONT-378,CONT-378,CONT-378,-8.118538484986873,-79.00588960034847,0,
CONT-379,CONT-379,CONT-379,-8.119706431797981,-79.00635950036795,0,
CONT-380,CONT-380,CONT-380,-8.120002170273763,-79.00695864252728,0,
CONT-381,CONT-381,CONT-381,-8.120870789441597,-79.00790546129237,0,
CONT-382,CONT-382,CONT-382,-8.12077784918512,-79.00863904442888,0,
CONT-383,CONT-383,CONT-383,-8.121657752491055,-79.00957571654614,0,
SANTR-384,SANTR-384,SANTR-384,-8.117161893235984,-79.00658842356849,0,
SANTR-385,SANTR-385,SANTR-385,-8.117058405925924,-79.00647315993623,0,
MEII-386,MEII-386,MEII-386,-8.099033901692705,-79.04895700079014,0,
MEII-387,MEII-387,MEII-387,-8.098495169785746,-79.0486180410562,0,
MEII-388,MEII-388,MEII-388,-8.097219913425844,-79.04849835116343,0,
MEII-389,MEII-389,MEII-389,-8.096423249868666,-79.04813692237151,0,
MEII-390,MEII-390,MEII-390,-8.093079661490625,-79.04803097528779,0,
MEII-391,MEII-391,MEII-391,-8.093366120523875,-79.04785026236995,0,
MEI-392,MEI-392,MEI-392,-8.091216826823114,-79.04486831645428,0,
MEI-393,MEI-393,MEI-393,-8.091276573448349,-79.04258675456825,0,
MEI-394,MEI-394,MEI-394,-8.091099821130737,-79.04245030327898,0,
MEI-395,MEI-395,MEI-395,-8.09100414221566,-79.04475322802013,0,
MEI-396,MEI-396,MEI-396,-8.090889533276767,-79.04762998490156,0,
MEI-397,MEI-397,MEI-397,-8.09081119836902,-79.05026760219664,0,
MEI-398,MEI-398,MEI-398,-8.090959480771883,-79.05199714554081,0,
MEI-399,MEI-399,MEI-399,-8.091090235623536,-79.04834388211847,0,
CARE-400,CARE-400,CARE-400,-8.097299548109554,-79.00283809979163,0,
CARE-401,CARE-401,CARE-401,-8.097037986965624,-79.00286558686003,0,
CARE-402,CARE-402,CARE-402,-8.09426301583718,-79.00025110580525,0,
CARE-403,CARE-403,CARE-403,-8.09435130940265,-79.00058839222389,0,
PESQT-404,PESQT-404,PESQT-404,-8.09250138790664,-79.00050890837561,0,
PESQT-405,PESQT-405,PESQT-405,-8.093101124418354,-78.99981720141294,0,
PESQT-406,PESQT-406,PESQT-406,-8.093504867130962,-78.99689868173888,0,
PESQT-407,PESQT-407,PESQT-407,-8.093634324106304,-78.9966116825359,0,
PESQT-408,PESQT-408,PESQT-408,-8.089985991405921,-79.00585558243753,0,
EJER-409,EJER-409,EJER-409,-8.097623853056376,-79.01824176610688,0,
EJER-410,EJER-410,EJER-410,-8.099841818213305,-79.01932966033182,0,
EJER-411,EJER-411,EJER-411,-8.101564214385135,-79.02080722179673,0,
LAM-412,LAM-412,LAM-412,-8.126894654065964,-79.02211614063948,0,
LAM-413,LAM-413,LAM-413,-8.12659327559896,-79.02234982590006,0,
LAM-414,LAM-414,LAM-414,-8.124376781827053,-79.0228416804478,0,
LAM-415,LAM-415,LAM-415,-8.124744874560749,-79.02292516448132,0,
LAM-416,LAM-416,LAM-416,-8.129276754992103,-79.0213849033977,0,
LAM-417,LAM-417,LAM-417,-8.129316587808114,-79.02151331463695,0,
MO-418,MO-418,MO-418,-8.122423797452454,-79.02346291021783,0,
MO-419,MO-419,MO-419,-8.122560585911007,-79.02360797332474,0,
GPRA-420,GPRA-420,GPRA-420,-8.120353334236297,-79.0192133161398,0,
GPRA-421,GPRA-421,GPRA-421,-8.11740990867557,-79.02012158379448,0,
FRAZ-422,FRAZ-422,FRAZ-422,-8.115265679182626,-79.01835802195403,0,
PFRAZ-423,PFRAZ-423,PFRAZ-423,-8.117602216323425,-79.0150698823607,0,
PFRAZ-424,PFRAZ-424,PFRAZ-424,-8.121372642363447,-79.01032615097742,0,
PFRAZ-425,PFRAZ-425,PFRAZ-425,-8.121177924481646,-79.01097130484574,0,
PFRAZ-426,PFRAZ-426,PFRAZ-426,-8.120175783090732,-79.01165291827922,0,
PFRAZ-427,PFRAZ-427,PFRAZ-427,-8.118820880231599,-79.01310090190633,0,
COVIC-428,COVIC-428,COVIC-428,-8.111834418638303,-79.0470568893752,0,
COVIC-429,COVIC-429,COVIC-429,-8.11182513158458,-79.04496087056027,0,
COVIC-430,COVIC-430,COVIC-430,-8.110736840048078,-79.04458285444217,0,
COVIC-431,COVIC-431,COVIC-431,-8.109099614626327,-79.04559518810602,0,
COVIC-432,COVIC-432,COVIC-432,-8.109148135870392,-79.04427289310738,0,
COVIC-433,COVIC-433,COVIC-433,-8.108086500243024,-79.04392783567229,0,
COVIC-434,COVIC-434,COVIC-434,-8.113836806822032,-79.04655307286575,0,
JUL-435,JUL-435,JUL-435,-8.119551756559487,-79.02644093242374,0,
JUL-436,JUL-436,JUL-436,-8.117587809085263,-79.0288675945266,0,
JUL-438,JUL-438,JUL-438,-8.120796443441943,-79.02500789695443,0,
JUL-439,JUL-439,JUL-439,-8.118235596687914,-79.02775415057204,0,
JUL-440,JUL-440,JUL-440,-8.118449802500148,-79.02776252190114,0,
PROSAC-441,PROSAC-441,PROSAC-441,-8.08763718107549,-79.00228321856864,0,
PROSAC-442,PROSAC-442,PROSAC-442,-8.090827124914474,-79.00316130783946,0,
HUAS-443,HUAS-443,HUAS-443,-8.091732322144447,-78.99586099987634,0,
HUAS-444,HUAS-444,HUAS-444,-8.09019267182634,-78.99537256405335,0,
PRO-445,PRO-445,PRO-445,-8.091075841339105,-79.02631781334196,0,
PRO-446,PRO-446,PRO-446,-8.091259979769568,-79.02624405645709,0,
BLPAS-447,BLPAS-447,BLPAS-447,-8.104697900433546,-79.007772559364,0,
BLPAS-448,BLPAS-448,BLPAS-448,-8.103805730759088,-79.0093810154692,0,
SEP-449,SEP-449,SEP-449,-8.091431891056226,-79.02861312682536,0,
SEP-450,SEP-450,SEP-450,-8.091314676003082,-79.02867719585963,0,
AVOC-451,AVOC-451,AVOC-451,-8.089472483180918,-79.0238086150499,0,
AVOC-452,AVOC-452,AVOC-452,-8.091412945016373,-79.02451931148909,0,
AVOC-453,AVOC-453,AVOC-453,-8.09154943008169,-79.0245237537281,0,
AVOC-454,AVOC-454,AVOC-454,-8.089512644556542,-79.0239216013488,0,
AK-455,AK-455,AK-455,-8.090958910877083,-79.02692702101717,0,
AK-456,AK-456,AK-456,-8.0907936005375,-79.02695157394767,0,
CORT-457,CORT-457,CORT-457,-8.09659926896314,-79.05561314012988,0,
PUC-458,PUC-458,PUC-458,-8.09172004605463,-79.0227883725987,0,
GUZBA-459,GUZBA-459,GUZBA-459,-8.106212530856482,-79.00597293292567,0,
GUZBA-460,GUZBA-460,GUZBA-460,-8.106363224299528,-79.0063226238459,0,
GUZBA-461,GUZBA-461,GUZBA-461,-8.107095117873506,-79.01288565425577,0,
AMA-462,AMA-462,AMA-462,-8.105802608979936,-79.02250366707132,0,
AMA-463,AMA-463,AMA-463,-8.10402380297522,-79.02313177192765,0,
JOIN-464,JOIN-464,JOIN-464,-8.126935204390959,-79.02074988683836,0,
JOIN-465,JOIN-465,JOIN-465,-8.125170043335693,-79.01913822093154,0,
JOIN-466,JOIN-466,JOIN-466,-8.122431776759466,-79.0148852392597,0,
JOIN-467,JOIN-467,JOIN-467,-8.123682756637765,-79.01627831571584,0,
JOIN-468,JOIN-468,JOIN-468,-8.124413289314505,-79.01805055270073,0,
REP-469,REP-469,REP-469,-8.098916725338752,-79.04984682619835,0,
REP-470,REP-470,REP-470,-8.096269893254105,-79.04887151143267,0,
RASAN-471,RASAN-471,RASAN-471,-8.109230397441308,-79.00628138346849,0,
RASAN-472,RASAN-472,RASAN-472,-8.10618000315583,-79.00681179240516,0,
RASAN-473,RASAN-473,RASAN-473,-8.103425008503622,-79.00558669313172,0,
RASAN-474,RASAN-474,RASAN-474,-8.103484425070768,-79.00572248151727,0,
CTC-475,CTC-475,CTC-475,-8.104700605473532,-79.0041507065269,0,
CTC-476,CTC-476,CTC-476,-8.102770099532906,-79.0029400417864,0,
CTC-477,CTC-477,CTC-477,-8.102780064104909,-79.00312877829212,0,
VF-478,VF-478,VF-478,-8.12783008404908,-79.02103774778936,0,
VF-479,VF-479,VF-479,-8.126689866947178,-79.01990465685851,0,
VF-480,VF-480,VF-480,-8.125570660643838,-79.0188964818184,0,
FERMO-481,FERMO-481,FERMO-481,-8.119455110553107,-79.01758711927725,0,
FERMO-482,FERMO-482,FERMO-482,-8.120464163566051,-79.01596537357152,0,
FERMO-483,FERMO-483,FERMO-483,-8.120542275374895,-79.01599770328775,0,
FERMO-484,FERMO-484,FERMO-484,-8.121310710603385,-79.01449386102202,0,
FERMO-485,FERMO-485,FERMO-485,-8.121440007961764,-79.01468541411852,0,
FERMO-486,FERMO-486,FERMO-486,-8.122094885298718,-79.01379492476183,0,
VICFE-487,VICFE-487,VICFE-487,-8.108525389261889,-79.0196548794873,0,
CRIS-488,CRIS-488,CRIS-488,-8.09454448963887,-79.04255424055134,0,
CRIS-489,CRIS-489,CRIS-489,-8.092052346742022,-79.04200368282558,0,
CA-490,CA-490,CA-490,-8.104861587545527,-79.00964822346047,0,
CA-491,CA-491,CA-491,-8.10528214328916,-79.00889754625652,0,
TUYU-492,TUYU-492,TUYU-492,-8.121626559369005,-79.02292683848468,0,
TUYU-493,TUYU-493,TUYU-493,-8.119368875925552,-79.0235715773566,0,
HUAY-494,HUAY-494,HUAY-494,-8.119807669552044,-79.02081426181266,0,
HUAY-495,HUAY-495,HUAY-495,-8.117331572276239,-79.02206048761593,0,
TCH-496,TCH-496,TCH-496,-8.120674958151142,-79.01711012972132,0,
TCH-497,TCH-497,TCH-497,-8.121714841058532,-79.01840127902189,0,
SOCR-498,SOCR-498,SOCR-498,-8.103190003201812,-79.00725703615896,0,
SOCR-499,SOCR-499,SOCR-499,-8.103101044736473,-79.0072731313079,0,
LUSE-500,LUSE-500,LUSE-500,-8.103083454400998,-79.00859278092238,0,
LUSE-501,LUSE-501,LUSE-501,-8.103079467297713,-79.00865748919986,0,
SALV-502,SALV-502,SALV-502,-8.10638691804342,-79.03538846686878,0,
MI-503,MI-503,MI-503,-8.127754960683337,-79.01895179907032,0,
MI-504,MI-504,MI-504,-8.129756689132417,-79.02103654816909,0,
MI-505,MI-505,MI-505,-8.129317772892835,-79.02040506678439,0,
YP-506,YP-506,YP-506,-8.091043879060713,-78.9945504037225,0,
SS-507,SS-507,SS-507,-8.091286202094436,-78.99491518929688,0,
ESPIN-508,ESPIN-508,ESPIN-508,-8.093382055230236,-79.04332537379393,0,
ESPIN-509,ESPIN-509,ESPIN-509,-8.095807177113057,-79.04383532374364,0,
HUALL-510,HUALL-510,HUALL-510,-8.103276458419504,-79.02144684264609,0,
HUALL-511,HUALL-511,HUALL-511,-8.106451187675393,-79.01711717077839,0,
MAN-512,MAN-512,MAN-512,-8.101795894278965,-79.02123470024284,0,
PLAT-513,PLAT-513,PLAT-513,-8.104647167346316,-79.0072677622457,0,
LIVP-514,LIVP-514,LIVP-514,-8.103974772738283,-79.04280445663557,0,
RJ-515,RJ-515,RJ-515,-8.104865568958738,-79.03723139179573,0,
MM-516,MM-516,MM-516,-8.10813272077039,-79.01402592289841,0,
DQS-517,DQS-517,DQS-517,-8.10295167757984,-79.00383286467797,0,
MARVA-518,MARVA-518,MARVA-518,-8.128106784635508,-79.0205299503815,0,
ALM-519,ALM-519,ALM-519,-8.089580570348541,-78.99345056727009,0,
JOSA-520,JOSA-520,JOSA-520,-8.109998128537233,-79.01993483541312,0,
PUN-521,PUN-521,PUN-521,-8.104914698384782,-79.0176217644276,0,
PUN-522,PUN-522,PUN-522,-8.10697794903092,-79.01520307698067,0,
AGR-523,AGR-523,AGR-523,-8.104305712628106,-79.029115160855,0,
CALCUC-524,CALCUC-524,CALCUC-524,-8.122601052719038,-79.02085851989501,0,
CALCUC-525,CALCUC-525,CALCUC-525,-8.123718270139724,-79.01967566347396,0,
CHCH-526,CHCH-526,CHCH-526,-8.089920933677075,-78.99369008388024,0,
NA-527,NA-527,NA-527,-8.106955385739901,-79.03486352236465,0,
SR-528,SR-528,SR-528,-8.102860064585597,-79.00463819831081,0,
C20-529,C20-529,C20-529,-8.121149599500713,-79.01306335103213,0,
SB-530,SB-530,SB-530,-8.107772912326865,-79.0017551557484,0,
SB-531,SB-531,SB-531,-8.107883775517093,-79.00179270880213,0,
CAR-532,CAR-532,CAR-532,-8.103328542229816,-79.0197007700295,0,
CAR-533,CAR-533,CAR-533,-8.105069598777952,-79.021373762107,0,
ROME-534,ROME-534,ROME-534,-8.105551331990581,-79.0071712082828,0,
ALFU-535,ALFU-535,ALFU-535,-8.092073220746345,-78.99570141332443,0,
MR-536,MR-536,MR-536,-8.129298455616937,-79.02076370099549,0,
S-537,S-537,S-537,-8.114656036734269,-79.01814391307515,0,
HDY-538,HDY-538,HDY-538,-8.091667927323298,-78.99345874462678,0,
EV-539,EV-539,EV-539,-8.121105159270424,-79.00579490586895,0,
EV-540,EV-540,EV-540,-8.116904380160582,-79.00263957640432,0,
EV-541,EV-541,EV-541,-8.114325976933198,-79.00071916548782,0,
EV-542,EV-542,EV-542,-8.11031686570745,-78.99746549314989,0,
EV-543,EV-543,EV-543,-8.110186096588437,-78.99748876495723,0,
EV-544,EV-544,EV-544,-8.114188554820624,-79.00072237595843,0,
EV-545,EV-545,EV-545,-8.12115027454816,-79.00566860242444,0,
EV-546,EV-546,EV-546,-8.116678928574183,-79.00261966210454,0,
PS-12,PS-12,PS-12,-8.19067585585815,-78.99347048561899,0,
PS-13,PS-13,PS-13,-8.192863600812009,-78.99198113609233,0,
PS-14,PS-14,PS-14,-8.195392984999954,-78.99029121199999,0,
PS-15,PS-15,PS-15,-8.198634352731622,-78.98817244564214,0,
PS-16,PS-16,PS-16,-8.201101976890724,-78.98674757166434,0,
PS-17,PS-17,PS-17,-8.204651064751591,-78.98474104336047,0,
PS-18,PS-18,PS-18,-8.206786815624165,-78.98269906984649,0,
PS-19,PS-19,PS-19,-8.209578265667307,-78.98147463394821,0,
PS-20,PS-20,PS-20,-8.212500434773142,-78.9809039998656,0,
PS-21,PS-21,PS-21,-8.215723895574783,-78.98024686072611,0,
PS-23,PS-23,PS-23,-8.220689784219598,-78.97778861080675,0,
PS-24,PS-24,PS-24,-8.223534229371117,-78.97707983961521,0,
PS-25,PS-25,PS-25,-8.222961160403415,-78.97433627047242,0,
PS-26,PS-26,PS-26,-8.220502168037346,-78.97483245955637,0,
PS-27,PS-27,PS-27,-8.219548877683543,-78.97221939767202,0,
PS-28,PS-28,PS-28,-8.194684870965002,-78.9712950861313,0,
PS-29,PS-29,PS-29,-8.192169874059926,-78.97412672835517,0,
PS-30,PS-30,PS-30,-8.189927177377594,-78.9764171469118,0,
PS-36,PS-36,PS-36,-8.188828408108094,-78.98624863133276,0,
PS-4,PS-4,PS-4,-8.18523271343488,-78.98380782802796,0,
PS-40,PS-40,PS-40,-8.190965566327538,-78.9827114751192,0,
PS-41,PS-41,PS-41,-8.188474647453548,-78.98520625678377,0,
PS-42,PS-42,PS-42,-8.186446989711657,-78.98793459442852,0,
PS-44,PS-44,PS-44,-8.219152070423398,-78.97145524252599,0,
PS-45,PS-45,PS-45,-8.220260395095467,-78.97395898605127,0,
PS-46,PS-46,PS-46,-8.219389662806526,-78.97643107813845,0,
PS-47,PS-47,PS-47,-8.21718528237058,-78.97705268065333,0,
PS-48,PS-48,PS-48,-8.214737685292556,-78.97753917097072,0,
PS-49,PS-49,PS-49,-8.211477045448497,-78.9785513630836,0,
PS-5,PS-5,PS-5,-8.187065912166437,-78.9816137806032,0,
PS-50,PS-50,PS-50,-8.211457311171937,-78.98082596595374,0,
PS-51,PS-51,PS-51,-8.207961479112535,-78.98169960726871,0,
PS-52,PS-52,PS-52,-8.2041509816974,-78.98407336765503,0,
PS-53,PS-53,PS-53,-8.202115763530951,-78.98551337867798,0,
PS-54,PS-54,PS-54,-8.198504568243708,-78.98790336973427,0,
PS-55,PS-55,PS-55,-8.196462384943848,-78.98928925789657,0,
PS-56,PS-56,PS-56,-8.194355795106796,-78.99073026637852,0,
PS-57,PS-57,PS-57,-8.191408595103674,-78.99260949787168,0,
PS-6,PS-6,PS-6,-8.190634039355109,-78.98049395087077,0,
PS-62,PS-62,PS-62,-8.19239818131062,-78.97460416294365,0,
PS-63,PS-63,PS-63,-8.190383821937157,-78.97734504092816,0,
PS-64,PS-64,PS-64,-8.188232056125136,-78.9795803264701,0,
PS-69,PS-69,PS-69,-8.186467630840797,-78.98511316808431,0,
PS-70,PS-70,PS-70,-8.188943075825954,-78.98614605300534,0,
PL-1,PL-1,PL-1,-8.110369556520416,-78.9974002526271,0,
PL-2,PL-2,PL-2,-8.090295423802589,-78.95904944597186,0,
PL-3,PL-3,PL-3,-8.077213098483597,-78.9497272738537,0,
PL-4,PL-4,PL-4,-8.088348977314608,-78.96333846712494,0,
PL-5,PL-5,PL-5,-8.079860713061572,-78.95078447051684,0,
PL-6,PL-6,PL-6,-8.080487765216473,-78.95174369368146,0,
PL-7,PL-7,PL-7,-8.081575886032812,-78.95154755691668,0,
PL-8,PL-8,PL-8,-8.09109134198684,-78.96327551355029,0,
PL-9,PL-9,PL-9,-8.082529304375482,-78.95343232899975,0,
PL-10,PL-10,PL-10,-8.088633871447582,-78.9582071306674,0,
PL-11,PL-11,PL-11,-8.086901600549924,-78.961764818121,0,
PL-12,PL-12,PL-12,-8.084476421071155,-78.96149738284053,0,
PL-13,PL-13,PL-13,-8.082336613114288,-78.95544717147776,0,
PL-14,PL-14,PL-14,-8.086847165268344,-78.95528588252535,0,
PL-15,PL-15,PL-15,-8.090312292258286,-78.96405469251188,0,
PL-16,PL-16,PL-16,-8.091657306017883,-78.96135505945009,0,
PL-17,PL-17,PL-17,-8.086863466195727,-78.95527000807664,0,
PL-18,PL-18,PL-18,-8.082394045283031,-78.95438871031446,0,
PL-19,PL-19,PL-19,-8.085497484934324,-78.95774982659736,0,
PL-20,PL-20,PL-20,-8.088975287104839,-78.9635072979568,0,
PL-21,PL-21,PL-21,-8.090259845188227,-78.97492502188454,0,
PL-22,PL-22,PL-22,-8.084822008466372,-78.95550616626618,0,
PL-23,PL-23,PL-23,-8.088317729266096,-78.95560184679553,0,
PL-24,PL-24,PL-24,-8.075888609618495,-78.94822630734953,0,
PL-25,PL-25,PL-25,-8.088107874813838,-78.98101061388739,0,
PL-26,PL-26,PL-26,-8.091874391318227,-78.96500788425736,0,
PL-27,PL-27,PL-27,-8.086752630954624,-78.99123972413486,0,
PL-28,PL-28,PL-28,-8.089538209656679,-78.95665247174927,0,
PL-29,PL-29,PL-29,-8.077754835481242,-78.9496140144284,0,
PL-31,PL-31,PL-31,-8.085170571578146,-78.95784905542749,0,
PL-32,PL-32,PL-32,-8.075912842257841,-78.9482400538252,0,
PL-53_1,PL-53,PL-53_1,-8.084963056351492,-78.95553097180107,0,
PL-34,PL-34,PL-34,-8.083145987642427,-78.95296778301514,0,
PL-35,PL-35,PL-35,-8.085027449947225,-78.96329864668245,0,
PL-36,PL-36,PL-36,-8.09120168764514,-78.95920823445438,0,
PL-37,PL-37,PL-37,-8.083303842254056,-78.95272580537342,0,
PL-38,PL-38,PL-38,-8.08833127507346,-78.9631259795264,0,
PL-39,PL-39,PL-39,-8.091178982723926,-78.96319538497816,0,
PL-40,PL-40,PL-40,-8.082305168143714,-78.95424854395837,0,
PL-41,PL-41,PL-41,-8.090336637366057,-78.96403120353845,0,
PL-42,PL-42,PL-42,-8.091865090403074,-78.96477418978465,0,
PL-43,PL-43,PL-43,-8.086814682648313,-78.96101878704104,0,
PL-44,PL-44,PL-44,-8.079855735363095,-78.95069495028595,0,
PL-45,PL-45,PL-45,-8.084418996839103,-78.95998075299077,0,
PL-46,PL-46,PL-46,-8.091688835619712,-78.96110124963471,0,
PL-47,PL-47,PL-47,-8.091215535660496,-78.95707496227124,0,
PL-48,PL-48,PL-48,-8.090381662450712,-78.97505678682035,0,
PL-50,PL-50,PL-50,-8.088248619951942,-78.95541966230574,0,
PL-51,PL-51,PL-51,-8.088189092806926,-78.9811609604676,0,
PL-52,PL-52,PL-52,-8.081681460594796,-78.95688084924227,0,
PL-53_2,PL-53,PL-53_2,-8.082382843618637,-78.95533516921984,0,
PL-54,PL-54,PL-54,-8.075516218065731,-78.94648935039744,0,
PL-55,PL-55,PL-55,-8.08693078873462,-78.99103642236311,0,
PL-56,PL-56,PL-56,-8.084637081885079,-78.98902639615191,0,
PL-57,PL-57,PL-57,-8.084917245049079,-78.98898241070279,0,
PL-58,PL-58,PL-58,-8.086266789470926,-78.98484850897896,0,
PL-59,PL-59,PL-59,-8.086058462740924,-78.98468591247342,0,
PL-60,PL-60,PL-60,-8.088978306481588,-78.97844439505648,0,
PL-61,PL-61,PL-61,-8.088746863263774,-78.97826738521206,0,
PL-62,PL-62,PL-62,-8.092286990906723,-78.96827951173846,0,
PL-63,PL-63,PL-63,-8.092490068111944,-78.96814192995429,0,
PL-64,PL-64,PL-64,-8.091330678583978,-78.97195145548935,0,
PL-65,PL-65,PL-65,-8.091436902607956,-78.97204499972233,0,
PL-66,PL-66,PL-66,-8.081353811355637,-78.95813002904093,0,
PL-67,PL-67,PL-67,-8.081558406160099,-78.95816668893691,0,
PL-68,PL-68,PL-68,-8.077906196577521,-78.9560530003554,0,
PL-69,PL-69,PL-69,-8.077877987575258,-78.95593095193286,0,
PL-70,PL-70,PL-70,-8.075672833709906,-78.95759928741501,0,
PL-71,PL-71,PL-71,-8.075668858164818,-78.95759426415516,0,
PL-72,PL-72,PL-72,-8.073239509238435,-78.95737632762398,0,
PL-73,PL-73,PL-73,-8.07315564311974,-78.95742293623378,0,
PL-74,PL-74,PL-74,-8.071180843329142,-78.95484667683414,0,
PL-75,PL-75,PL-75,-8.071288734920515,-78.95487919591886,0,
PL-76,PL-76,PL-76,-8.068196228449764,-78.95509410876284,0,
PL-77,PL-77,PL-77,-8.068269259924374,-78.95513165582908,0,
PL-78,PL-78,PL-78,-8.068474406108978,-78.95270828275028,0,
PL-79,PL-79,PL-79,-8.068240710720495,-78.95312335024768,0,
PL-80,PL-80,PL-80,-8.070044231124404,-78.95033352443721,0,
PL-81,PL-81,PL-81,-8.069976516114918,-78.95040996658744,0,
PL-82,PL-82,PL-82,-8.07163010704232,-78.95050352758841,0,
PL-83,PL-83,PL-83,-8.071549318426008,-78.95036838607054,0,
PL-84,PL-84,PL-84,-8.073088316967086,-78.98823280088692,0,
PL-85,PL-85,PL-85,-8.085889480839453,-78.99183055497066,0,
PL-86,PL-86,PL-86,-8.067991409817482,-78.98339979045362,0,
PL-87,PL-87,PL-87,-8.067616961194036,-78.98020695957378,0,
PL-88,PL-88,PL-88,-8.066201823267646,-78.97788181909615,0,
PL-89,PL-89,PL-89,-8.064211739169542,-78.97934161130716,0,
PL-90,PL-90,PL-90,-8.063720088807859,-78.97621817556745,0,
PL-91,PL-91,PL-91,-8.082721759115957,-78.9927395786713,0,
PL-92,PL-92,PL-92,-8.086870068114111,-78.99188261349431,0,
PL-93,PL-93,PL-93,-8.06786991589431,-78.98315672167348,0,
PL-94,PL-94,PL-94,-8.067713227221356,-78.97972282289182,0,
PL-95,PL-95,PL-95,-8.07692993682708,-78.99247336906205,0,
PL-96,PL-96,PL-96,-8.11123122180187,-78.99606249923927,0,
PL-97,PL-97,PL-97,-8.109290805909188,-78.98969862803237,0,
PL-98,PL-98,PL-98,-8.107589942228104,-78.9869553761363,0,
PL-99,PL-99,PL-99,-8.109296441819284,-78.99158187391127,0,
PL-100,PL-100,PL-100,-8.11034743205623,-78.99308645244275,0,
PL-101,PL-101,PL-101,-8.109552358685576,-78.99483205041194,0,
PL-102,PL-102,PL-102,-8.109362127958361,-78.99484514906106,0,
PL-103,PL-103,PL-103,-8.110410378380262,-78.99308457986484,0,
PL-105,PL-105,PL-105,-8.109403652015798,-78.98971475892434,0,
PL-104,PL-104,PL-104,-8.109424233808953,-78.99157650421722,0,
PL-106,PL-106,PL-106,-8.107620893371378,-78.98644443564984,0,
PL-107,PL-107,PL-107,-8.111074223645085,-78.99586267706914,0,
PL-Existente_1,PL-Existente,PL-Existente_1,-8.092466237092582,-78.96724820072146,0,
PL-Existente_2,PL-Existente,PL-Existente_2,-8.092753361665668,-78.96725824508276,0,
PVL-4,PVL-4,PVL-4,-8.141083515498957,-79.0572426852635,0,
PVL-5,PVL-5,PVL-5,-8.138737654997417,-79.06048279057947,0,
PT-185,PT-185,PT-185,-8.126011811980925,-79.04591336650506,0,
PVL-35,PVL-35,PVL-35,-8.128814074221642,-79.04835685874255,0,
PVL-34,PVL-34,PVL-34,-8.12872403155528,-79.04851878939726,0,
PVL-37,PVL-37,PVL-37,-8.131468662839245,-79.05070613705303,0,
PVL-36,PVL-36,PVL-36,-8.131514493162813,-79.05092943073195,0,
PVL-38,PVL-38,PVL-38,-8.133089356942707,-79.04895399033555,0,
PVL-9,PVL-9,PVL-9,-8.137332723529866,-79.04384069237732,0,
PVL-10,PVL-10,PVL-10,-8.140033055810353,-79.0461648272447,0,
PVL-11,PVL-11,PVL-11,-8.142746311360403,-79.0484423599882,0,
PVL-24,PVL-24,PVL-24,-8.13681263833497,-79.04009834366431,0,
PVL-SC-HUAMAN,PVL-SC-HUAMAN,PVL-SC-HUAMAN,-8.136792057925074,-79.0395374249157,0,
PVL-26,PVL-26,PVL-26,-8.136713731544935,-79.03752341833035,0,
PVL-25,PVL-25,PVL-25,-8.133947473206879,-79.03578088731442,0,
PVL-18,PVL-18,PVL-18,-8.142711489055353,-79.05454471623757,0,
PVL-22,PVL-22,PVL-22,-8.134755643569827,-79.04502628757542,0,
PVL-23,PVL-23,PVL-23,-8.135854439690656,-79.04231957412456,0,
PVL-27,PVL-27,PVL-27,-8.137147668912524,-79.04391493529337,0,
PVL-28,PVL-28,PVL-28,-8.139737669350373,-79.04621176673766,0,
PVL-29,PVL-29,PVL-29,-8.141980793394668,-79.04813548674655,0,
PVL-46,PVL-46,PVL-46,-8.143694210516117,-79.04902741484469,0,
PVL-30,PVL-30,PVL-30,-8.14503108373271,-79.05056062972864,0,
PVL-12,PVL-12,PVL-12,-8.145696859142566,-79.05086203998258,0,
PVL-45,PVL-45,PVL-45,-8.145435035967063,-79.04699487029117,0,
PVL-44,PVL-44,PVL-44,-8.147665311720862,-79.04448777276495,0,
PVL-3,PVL-3,PVL-3,-8.142960787318927,-79.05450485413576,0,
PVL-19,PVL-19,PVL-19,-8.13999288488508,-79.05221182696394,0,
PVL-2,PVL-2,PVL-2,-8.140027417662187,-79.05199293040177,0,
PVL-7,PVL-7,PVL-7,-8.13375482451392,-79.03532501674569,0,
PT-183,PT-183,PT-183,-8.125792378738721,-79.04595762111792,0,
PVL-21,PVL-21,PVL-21,-8.13108697512689,-79.04452298068233,0,
PVL-8,PVL-8,PVL-8,-8.13145973250374,-79.04458567824751,0,
PT-160,PT-160,PT-160,-8.128464907157973,-79.04206507347438,0,
PVL-47,PVL-47,PVL-47,-8.12816652922457,-79.04079671991694,0,
PVL-48,PVL-48,PVL-48,-8.129587756416242,-79.03709191736907,0,
PVL-42,PVL-42,PVL-42,-8.15030484341695,-79.0446184828419,0,
PVL-14,PVL-14,PVL-14,-8.148571791231959,-79.04686420800807,0,
PVL-13,PVL-13,PVL-13,-8.148516660220258,-79.04984662711999,0,
PVL-15,PVL-15,PVL-15,-8.14476424136739,-79.05363812646767,0,
PVL-SC2,PVL-SC2,PVL-SC2,-8.14117678046526,-79.05714143017637,0,
PVL-SC1,PVL-SC1,PVL-SC1,-8.138666959780883,-79.06049821834738,0,
PVL-32,PVL-32,PVL-32,-8.148713761401192,-79.04699363092833,0,
PVL-43,PVL-43,PVL-43,-8.150373545674674,-79.04463998717,0,
PVL-31,PVL-31,PVL-31,-8.147967625189516,-79.05054442032879,0,
PVL-33,PVL-33,PVL-33,-8.144727460313339,-79.05374441060303,0,
PVL-20,PVL-20,PVL-20,-8.13742034740047,-79.05007615913314,0,
PVL-1,PVL-1,PVL-1,-8.13771507407171,-79.05004971187512,0,
PVL-41,PVL-41,PVL-41,-8.134571299736937,-79.04760115117733,0,
PVL-SC3,PVL-SC3,PVL-SC3,-8.133736357525413,-79.0384176524781,0,
PVL-SC4,PVL-SC4,PVL-SC4,-8.133804802605267,-79.03845125192807,0,
PM-99,PM-99,PM-99,-8.187970604405741,-78.9788048130795,0,
PM-100,PM-100,PM-100,-8.186894007918012,-78.9810193345463,0,
PM-93,PM-93,PM-93,-8.18302425181924,-78.98664155707414,0,
PM-92,PM-92,PM-92,-8.180928128081135,-78.98946561120108,0,
PM-91,PM-91,PM-91,-8.178773988008219,-78.99218838213304,0,
PM-71,PM-71,PM-71,-8.176015845386507,-78.99570275468767,0,
PM-36,PM-36,PM-36,-8.17507765381643,-78.99664420382916,0,
PM-26,PM-26,PM-26,-8.17347339493223,-78.99885736846653,0,
PM-65,PM-65,PM-65,-8.173940335034924,-78.99866893466508,0,
PM-64,PM-64,PM-64,-8.171093210233911,-79.00230702440622,0,
PM-25,PM-25,PM-25,-8.170890439049687,-79.0022356037988,0,
PM-62,PM-62,PM-62,-8.168435564527513,-79.00586195106352,0,
PM-24,PM-24,PM-24,-8.167885313073942,-79.00605406204198,0,
PM-61,PM-61,PM-61,-8.165660422367212,-79.00897331626557,0,
PM-23,PM-23,PM-23,-8.165583427026974,-79.00874733848511,0,
PM-9,PM-9,PM-9,-8.16087970929616,-79.01160430974127,0,
PM-42,PM-42,PM-42,-8.160804363672458,-79.01182617641217,0,
PM-41,PM-41,PM-41,-8.156480931183042,-79.01214670609198,0,
PM-2,PM-2,PM-2,-8.156039195928344,-79.01230092915903,0,
PM-40,PM-40,PM-40,-8.152857402358974,-79.01186876092412,0,
PM-1,PM-1,PM-1,-8.152852091247787,-79.01203740163527,0,
PM-28,PM-28,PM-28,-8.148709778467982,-79.01168536034747,0,
PM-69,PM-69,PM-69,-8.148686875574192,-79.01181176286947,0,
PM-70,PM-70,PM-70,-8.144358659780382,-79.01276595652911,0,
PM-27,PM-27,PM-27,-8.144225575100652,-79.01259731261376,0,
PM-SC-01,PM-SC-01,PM-SC-01,-8.139945103825266,-79.01420026613273,0,
PM-SC-02,PM-SC-02,PM-SC-02,-8.137453406125088,-79.01432253258189,0,
PM-122,PM-122,PM-122,-8.136907436383463,-79.01644926639948,0,
PM-125,PM-125,PM-125,-8.140072102218406,-79.01444072865776,0,
PM-121,PM-121,PM-121,-8.13379099621582,-79.01882573695028,0,
PM-123,PM-123,PM-123,-8.134886683660813,-79.01915706225888,0,
PM-120,PM-120,PM-120,-8.131710291997965,-79.0204793251069,0,
PM-124,PM-124,PM-124,-8.131743150523736,-79.02073111649138,0,
PM-68,PM-68,PM-68,-8.149675951281537,-79.01037665684365,0,
PM-29,PM-29,PM-29,-8.149550710080813,-79.01033100592541,0,
PM-67,PM-67,PM-67,-8.14967823807808,-79.00848180318896,0,
PM-30,PM-30,PM-30,-8.149645345313818,-79.00852874382241,0,
PM-39,PM-39,PM-39,-8.14754981810813,-79.00583029728735,0,
PM-77,PM-77,PM-77,-8.14701314386606,-79.00240358275512,0,
PM-38,PM-38,PM-38,-8.147024102875433,-79.00261514279745,0,
PM-SC3,PM-SC3,PM-SC3,-8.178553296080098,-78.99219106552187,0,
PM-SC4,PM-SC4,PM-SC4,-8.180751575778373,-78.98931138228242,0,
PM-SC5,PM-SC5,PM-SC5,-8.183088228117057,-78.9859706931058,0,
PM-SC6,PM-SC6,PM-SC6,-8.185396322051718,-78.98313123341057,0,
PM-31,PM-31,PM-31,-8.143609907331404,-78.99919498887009,0,
PM-76,PM-76,PM-76,-8.14356875506334,-78.99928819373592,0,
PM-75,PM-75,PM-75,-8.14069862888839,-78.99801010017882,0,
PM-32,PM-32,PM-32,-8.139713438926298,-78.99808470487554,0,
PM-33,PM-33,PM-33,-8.137145453108468,-78.99710894338197,0,
PM-74,PM-74,PM-74,-8.136977259265226,-78.99735969005779,0,
PM-73,PM-73,PM-73,-8.134410989808748,-78.99655032813551,0,
PM-34,PM-34,PM-34,-8.134270263378866,-78.9966881248697,0,
PM-78,PM-78,PM-78,-8.133070431458203,-78.99495911221604,0,
PM-79_1,PM-79,PM-79_1,-8.132979168163526,-78.99488156415072,0,
PM-80,PM-80,PM-80,-8.135699194024,-78.99521132248054,0,
PM-79_2,PM-79,PM-79_2,-8.131978535680771,-78.9971237696658,0,
PM-35,PM-35,PM-35,-8.138575429547949,-78.9939313500384,0,
PM-72,PM-72,PM-72,-8.138414385002674,-78.99380073171312,0,
PM- 82,PM- 82,PM- 82,-8.13843695661529,-78.99235931232577,0,
PM-  83,PM-  83,PM-  83,-8.138324793999798,-78.99231142547214,0,
PM-102,PM-102,PM-102,-8.18356159005937,-78.99358080998047,0,
PM-113,PM-113,PM-113,-8.181621060131759,-78.99051737083678,0,
PM-115,PM-115,PM-115,-8.18352993745416,-78.98804940597236,0,
PM-104,PM-104,PM-104,-8.187092453235966,-78.98979284217006,0,
PM-103,PM-103,PM-103,-8.185134484166433,-78.9916016578175,0,
PM-107,PM-107,PM-107,-8.184442883289073,-78.9906320391346,0,
PM-105,PM-105,PM-105,-8.18324420300068,-78.99225712194978,0,
PM-94,PM-94,PM-94,-8.182407243762572,-78.993434275633,0,
PM-106,PM-106,PM-106,-8.181721619068004,-78.99428523142527,0,
PM-101,PM-101,PM-101,-8.179213669442914,-78.99362733517923,0,
PM-112,PM-112,PM-112,-8.179253251561256,-78.99362459670839,0,
PM-90,PM-90,PM-90,-8.177079460499861,-78.9963077236521,0,
PM-89,PM-89,PM-89,-8.177089767688033,-78.99639006477854,0,
PM-37,PM-37,PM-37,-8.17581141532895,-78.99656776568648,0,
PM-114,PM-114,PM-114,-8.181606787970217,-78.99198654883479,0,
PM-95,PM-95,PM-95,-8.179277101562564,-78.99709045470367,0,
PM-111,PM-111,PM-111,-8.178695289387012,-78.99715650884963,0,
PM-117,PM-117,PM-117,-8.119224820512725,-79.00350998800666,0,
PM-98,PM-98,PM-98,-8.188338917757942,-78.99454973987194,0,
PM-108,PM-108,PM-108,-8.187966902034022,-78.99431571401456,0,
PM-109,PM-109,PM-109,-8.185343557618369,-78.99520184551878,0,
PM-97,PM-97,PM-97,-8.184529834376027,-78.99571281033909,0,
PM-119,PM-119,PM-119,-8.121648832400174,-79.00462873651374,0,
PM-96,PM-96,PM-96,-8.181514554267295,-78.99668595776907,0,
PM-110,PM-110,PM-110,-8.18220148641086,-78.99624120560051,0,
PM-118,PM-118,PM-118,-8.120062145553536,-79.00367298119096,0,
PM-126,PM-126,PM-126,-8.112122764591938,-78.99841613958246,0,
PM-20,PM-20,PM-20,-8.165769604045853,-79.01002339769157,0,
PM-54,PM-54,PM-54,-8.189717789913592,-79.0038593450231,0,
PM-43,PM-43,PM-43,-8.165779897675439,-79.00997679369412,0,
PM-49_1,PM-49,PM-49_1,-8.16497026611034,-79.01077500705118,0,
PM-17,PM-17,PM-17,-8.169849016145116,-79.00961905489577,0,
PM-22,PM-22,PM-22,-8.169196220654099,-79.00693617682259,0,
PM-3,PM-3,PM-3,-8.170228997270593,-79.00806065512151,0,
PM-84,PM-84,PM-84,-8.171945459137282,-79.00817066023592,0,
PM-56,PM-56,PM-56,-8.171627525095415,-79.01129711399331,0,
PM-49_2,PM-49,PM-49_2,-8.174409924477786,-79.01194084721523,0,
PM-60,PM-60,PM-60,-8.176723051762016,-79.01275656844534,0,
PM-4,PM-4,PM-4,-8.177989460881737,-79.01413589818979,0,
PM-6,PM-6,PM-6,-8.177255036154422,-79.01528488622559,0,
PM-45,PM-45,PM-45,-8.178037242776469,-79.01603422817769,0,
PM-50,PM-50,PM-50,-8.178987381647891,-79.01465959965752,0,
PM-51,PM-51,PM-51,-8.17965687292739,-79.01345662351358,0,
PM-59,PM-59,PM-59,-8.180672211556473,-79.0124980777076,0,
PM-47,PM-47,PM-47,-8.182072056996656,-79.01180639760783,0,
PM-13,PM-13,PM-13,-8.184296531788949,-79.01037376730777,0,
PM-86,PM-86,PM-86,-8.186963365376878,-79.00781326167366,0,
PM-87,PM-87,PM-87,-8.188713258273676,-79.00613855833039,0,
PM-7,PM-7,PM-7,-8.169206841689672,-79.01069898167441,0,
PM-63,PM-63,PM-63,-8.169389702877504,-79.00693148759892,0,
PM-18,PM-18,PM-18,-8.171541904010123,-79.01132628147364,0,
PM-19,PM-19,PM-19,-8.174283154495193,-79.01200722790196,0,
PM-21,PM-21,PM-21,-8.176619839261285,-79.01284843722954,0,
PM-58,PM-58,PM-58,-8.17792109338366,-79.01410538778498,0,
PM-46,PM-46,PM-46,-8.177109037057257,-79.015395475584,0,
PM-8,PM-8,PM-8,-8.178129842121296,-79.01605636249356,0,
PM-10,PM-10,PM-10,-8.179071008504046,-79.01464216437606,0,
PM-11,PM-11,PM-11,-8.179711842603947,-79.01341170189838,0,
PM-5,PM-5,PM-5,-8.180068593192335,-79.0128594980574,0,
PM-12,PM-12,PM-12,-8.182312662391258,-79.01185233111433,0,
PM-48,PM-48,PM-48,-8.184717335387639,-79.01031508823937,0,
PM-85,PM-85,PM-85,-8.187014136599664,-79.00788500638811,0,
PM-88,PM-88,PM-88,-8.188791239834355,-79.00622841419865,0,
PM-52,PM-52,PM-52,-8.187632686872407,-79.00591377174422,0,
PM-14,PM-14,PM-14,-8.187716020118089,-79.00611340664048,0,
PM-53,PM-53,PM-53,-8.187125648004223,-79.00448463827901,0,
PM-15,PM-15,PM-15,-8.187183720293042,-79.00450073554316,0,
PM-16,PM-16,PM-16,-8.189770215390604,-79.00378290348044,0,
SYNTH_START_19946662,INICIO_19946662,INICIO RUTA 19946662,-7.992074200000001,-79.07506500000001,0,
SYNTH_END_19946662,FIN_19946662,FIN RUTA 19946662,-8.1468076,-79.0518622,0,
SYNTH_START_19946938,INICIO_19946938,INICIO RUTA 19946938,-8.1468076,-79.0518622,0,
SYNTH_END_19946938,FIN_19946938,FIN RUTA 19946938,-7.991999900000001,-79.0749009,0,
SYNTH_START_19950139,INICIO_19950139,INICIO RUTA 19950139,-8.0492091,-79.0533913,0,
SYNTH_END_19950139,FIN_19950139,FIN RUTA 19950139,-8.150395300000001,-79.0489582,0,
SYNTH_START_19950214,INICIO_19950214,INICIO RUTA 19950214,-8.1478411,-79.05267060000001,0,
SYNTH_END_19950214,FIN_19950214,FIN RUTA 19950214,-8.0492091,-79.0533913,0,
SYNTH_START_19953369,INICIO_19953369,INICIO RUTA 19953369,-8.091106600000002,-79.04235680000001,0,
SYNTH_END_19953369,FIN_19953369,FIN RUTA 19953369,-8.0912942,-79.04187950000001,0,
SYNTH_START_19953601,INICIO_19953601,INICIO RUTA 19953601,-8.0660298,-79.1099423,0,
SYNTH_END_19953601,FIN_19953601,FIN RUTA 19953601,-8.1302637,-79.0209164,0,
SYNTH_START_19959151,INICIO_19959151,INICIO RUTA 19959151,-8.090220700000001,-79.1155744,0,
SYNTH_END_19959151,FIN_19959151,FIN RUTA 19959151,-8.090220700000001,-79.1155744,0,
SYNTH_START_19959184,INICIO_19959184,INICIO RUTA 19959184,-8.090220700000001,-79.1155744,0,
SYNTH_END_19959184,FIN_19959184,FIN RUTA 19959184,-8.131122000000001,-79.04443490000001,0,
SYNTH_START_19959196,INICIO_19959196,INICIO RUTA 19959196,-8.131122000000001,-79.04443490000001,0,
SYNTH_END_19959196,FIN_19959196,FIN RUTA 19959196,-8.090220700000001,-79.1155744,0,
SYNTH_START_19959202,INICIO_19959202,INICIO RUTA 19959202,-8.1385614,-79.057299,0,
SYNTH_END_19959202,FIN_19959202,FIN RUTA 19959202,-8.0677207,-79.0705326,0,
SYNTH_START_19959207,INICIO_19959207,INICIO RUTA 19959207,-8.0677207,-79.0705326,0,
SYNTH_END_19959207,FIN_19959207,FIN RUTA 19959207,-8.1385973,-79.05724380000001,0,
SYNTH_START_19959214,INICIO_19959214,INICIO RUTA 19959214,-8.1385614,-79.057299,0,
SYNTH_END_19959214,FIN_19959214,FIN RUTA 19959214,-7.9974556,-79.0731686,0,
SYNTH_START_19959217,INICIO_19959217,INICIO RUTA 19959217,-7.9982972000000006,-79.073087,0,
SYNTH_END_19959217,FIN_19959217,FIN RUTA 19959217,-8.1385973,-79.05724380000001,0,
SYNTH_START_19959224,INICIO_19959224,INICIO RUTA 19959224,-8.1385614,-79.057299,0,
SYNTH_END_19959224,FIN_19959224,FIN RUTA 19959224,-8.0677207,-79.0705326,0,
SYNTH_START_19961769,INICIO_19961769,INICIO RUTA 19961769,-8.0677207,-79.0705326,0,
SYNTH_END_19961769,FIN_19961769,FIN RUTA 19961769,-8.1385973,-79.05724380000001,0,
SYNTH_START_19961792,INICIO_19961792,INICIO RUTA 19961792,-8.1385614,-79.057299,0,
SYNTH_END_19961792,FIN_19961792,FIN RUTA 19961792,-8.0598135,-79.08304530000001,0,
SYNTH_START_19961795,INICIO_19961795,INICIO RUTA 19961795,-8.0598135,-79.08304530000001,0,
SYNTH_END_19961795,FIN_19961795,FIN RUTA 19961795,-8.1385973,-79.05724380000001,0,
SYNTH_START_19961869,INICIO_19961869,INICIO RUTA 19961869,-8.067581200000001,-79.07065750000001,0,
SYNTH_END_19961869,FIN_19961869,FIN RUTA 19961869,-7.9974556,-79.0731686,0,
SYNTH_START_19961898,INICIO_19961898,INICIO RUTA 19961898,-7.998562300000001,-79.0730029,0,
SYNTH_END_19961898,FIN_19961898,FIN RUTA 19961898,-8.0677207,-79.0705326,0,
SYNTH_START_19961919,INICIO_19961919,INICIO RUTA 19961919,-8.1385614,-79.057299,0,
SYNTH_END_19961919,FIN_19961919,FIN RUTA 19961919,-7.9974556,-79.0731686,0,
SYNTH_START_19961936,INICIO_19961936,INICIO RUTA 19961936,-7.9982972000000006,-79.073087,0,
SYNTH_END_19961936,FIN_19961936,FIN RUTA 19961936,-8.1385973,-79.05724380000001,0,
SYNTH_START_19961948,INICIO_19961948,INICIO RUTA 19961948,-8.0753594,-78.94697740000001,0,
SYNTH_END_19961948,FIN_19961948,FIN RUTA 19961948,-8.1385973,-79.05724380000001,0,
SYNTH_START_19961958,INICIO_19961958,INICIO RUTA 19961958,-8.1385973,-79.05724380000001,0,
SYNTH_END_19961958,FIN_19961958,FIN RUTA 19961958,-8.0753594,-78.94697740000001,0,
SYNTH_START_19961962,INICIO_19961962,INICIO RUTA 19961962,-8.0633137,-78.99095820000001,0,
SYNTH_END_19961962,FIN_19961962,FIN RUTA 19961962,-8.124188,-79.038706,0,
SYNTH_START_19962130,INICIO_19962130,INICIO RUTA 19962130,-8.047702000000001,-79.07056320000001,0,
SYNTH_END_19962130,FIN_19962130,FIN RUTA 19962130,-8.1133038,-79.0461236,0,
SYNTH_START_19962183,INICIO_19962183,INICIO RUTA 19962183,-8.1133038,-79.0461236,0,
SYNTH_END_19962183,FIN_19962183,FIN RUTA 19962183,-8.047702000000001,-79.07056320000001,0,
SYNTH_START_19962194,INICIO_19962194,INICIO RUTA 19962194,-8.0481128,-79.00850120000001,0,
SYNTH_END_19962194,FIN_19962194,FIN RUTA 19962194,-8.1141713,-79.0468541,0,
SYNTH_START_19962204,INICIO_19962204,INICIO RUTA 19962204,-8.064982200000001,-79.01691310000001,0,
SYNTH_END_19962204,FIN_19962204,FIN RUTA 19962204,-8.064982200000001,-79.01691310000001,0,
SYNTH_START_19962213,INICIO_19962213,INICIO RUTA 19962213,-8.219117,-78.9703683,0,
SYNTH_END_19962213,FIN_19962213,FIN RUTA 19962213,-8.0648636,-79.02230390000001,0,
SYNTH_START_19962218,INICIO_19962218,INICIO RUTA 19962218,-8.219117,-78.9703683,0,
SYNTH_END_19962218,FIN_19962218,FIN RUTA 19962218,-8.0637021,-79.0225101,0,
SYNTH_START_19962222,INICIO_19962222,INICIO RUTA 19962222,-8.0637159,-79.0225872,0,
SYNTH_END_19962222,FIN_19962222,FIN RUTA 19962222,-8.219117,-78.9703683,0,
SYNTH_START_19962228,INICIO_19962228,INICIO RUTA 19962228,-8.0637021,-79.0225101,0,
SYNTH_END_19962228,FIN_19962228,FIN RUTA 19962228,-8.219117,-78.9703683,0,
SYNTH_START_19962230,INICIO_19962230,INICIO RUTA 19962230,-8.0637021,-79.0225101,0,
SYNTH_END_19962230,FIN_19962230,FIN RUTA 19962230,-8.219117,-78.9703683,0,
SYNTH_START_19962257,INICIO_19962257,INICIO RUTA 19962257,-8.219117,-78.9703683,0,
SYNTH_END_19962257,FIN_19962257,FIN RUTA 19962257,-8.0637159,-79.0225872,0,
SYNTH_START_19962263,INICIO_19962263,INICIO RUTA 19962263,-8.0637021,-79.0225101,0,
SYNTH_END_19962263,FIN_19962263,FIN RUTA 19962263,-8.1822532,-78.98961820000001,0,
SYNTH_START_19962271,INICIO_19962271,INICIO RUTA 19962271,-8.1822532,-78.98961820000001,0,
SYNTH_END_19962271,FIN_19962271,FIN RUTA 19962271,-8.0637159,-79.0225872,0,
SYNTH_START_19962272,INICIO_19962272,INICIO RUTA 19962272,-8.1141713,-79.0468541,0,
SYNTH_END_19962272,FIN_19962272,FIN RUTA 19962272,-8.0481128,-79.00850120000001,0,
SYNTH_START_19962280,INICIO_19962280,INICIO RUTA 19962280,-8.057127000000001,-79.0467557,0,
SYNTH_END_19962280,FIN_19962280,FIN RUTA 19962280,-8.1280675,-79.04318230000001,0,
SYNTH_START_19962287,INICIO_19962287,INICIO RUTA 19962287,-8.066697900000001,-79.028446,0,
SYNTH_END_19962287,FIN_19962287,FIN RUTA 19962287,-8.1382173,-79.06112370000001,0,
SYNTH_START_19962292,INICIO_19962292,INICIO RUTA 19962292,-8.1382173,-79.06112370000001,0,
SYNTH_END_19962292,FIN_19962292,FIN RUTA 19962292,-8.0643711,-79.02819070000001,0,
SYNTH_START_19962294,INICIO_19962294,INICIO RUTA 19962294,-8.1382173,-79.06112370000001,0,
SYNTH_END_19962294,FIN_19962294,FIN RUTA 19962294,-8.0643711,-79.02819070000001,0,
SYNTH_START_19962298,INICIO_19962298,INICIO RUTA 19962298,-8.066697900000001,-79.028446,0,
SYNTH_END_19962298,FIN_19962298,FIN RUTA 19962298,-8.1382173,-79.06112370000001,0,
SYNTH_START_19962300,INICIO_19962300,INICIO RUTA 19962300,-8.1382173,-79.06112370000001,0,
SYNTH_END_19962300,FIN_19962300,FIN RUTA 19962300,-8.056113900000001,-79.0228546,0,
SYNTH_START_19962303,INICIO_19962303,INICIO RUTA 19962303,-8.056113900000001,-79.0228546,0,
SYNTH_END_19962303,FIN_19962303,FIN RUTA 19962303,-8.1382173,-79.06112370000001,0,
SYNTH_START_19962313,INICIO_19962313,INICIO RUTA 19962313,-8.1382173,-79.06112370000001,0,
SYNTH_END_19962313,FIN_19962313,FIN RUTA 19962313,-8.056113900000001,-79.0228546,0,
SYNTH_START_19962315,INICIO_19962315,INICIO RUTA 19962315,-8.066697900000001,-79.028446,0,
SYNTH_END_19962315,FIN_19962315,FIN RUTA 19962315,-8.1382173,-79.06112370000001,0,
SYNTH_START_19962320,INICIO_19962320,INICIO RUTA 19962320,-8.1280675,-79.04318230000001,0,
SYNTH_END_19962320,FIN_19962320,FIN RUTA 19962320,-8.0567572,-79.0469554,0,
SYNTH_START_19962362,INICIO_19962362,INICIO RUTA 19962362,-8.1019746,-79.04220550000001,0,
SYNTH_END_19962362,FIN_19962362,FIN RUTA 19962362,-8.071022800000001,-79.01633430000001,0,
SYNTH_START_19962394,INICIO_19962394,INICIO RUTA 19962394,-8.0709414,-79.0163485,0,
SYNTH_END_19962394,FIN_19962394,FIN RUTA 19962394,-8.1019746,-79.04220550000001,0,
SYNTH_START_19962432,INICIO_19962432,INICIO RUTA 19962432,-8.0495085,-79.0059075,0,
SYNTH_END_19962432,FIN_19962432,FIN RUTA 19962432,-8.0495085,-79.0059075,0,
SYNTH_START_19962502,INICIO_19962502,INICIO RUTA 19962502,-8.0553398,-79.04769030000001,0,
SYNTH_END_19962502,FIN_19962502,FIN RUTA 19962502,-8.1037586,-79.04276970000001,0,
SYNTH_START_19965057,INICIO_19965057,INICIO RUTA 19965057,-8.1464025,-79.0459471,0,
SYNTH_END_19965057,FIN_19965057,FIN RUTA 19965057,-8.0601626,-79.04422310000001,0,
SYNTH_START_19965743,INICIO_19965743,INICIO RUTA 19965743,-8.0124709,-79.0665501,0,
SYNTH_END_19965743,FIN_19965743,FIN RUTA 19965743,-8.1442832,-79.0556964,0,
SYNTH_START_19965745,INICIO_19965745,INICIO RUTA 19965745,-8.1442832,-79.0556964,0,
SYNTH_END_19965745,FIN_19965745,FIN RUTA 19965745,-8.0124709,-79.0665501,0,
SYNTH_START_19965750,INICIO_19965750,INICIO RUTA 19965750,-8.0124709,-79.0665501,0,
SYNTH_END_19965750,FIN_19965750,FIN RUTA 19965750,-8.1442832,-79.0556964,0,
SYNTH_START_19965773,INICIO_19965773,INICIO RUTA 19965773,-8.1442832,-79.0556964,0,
SYNTH_END_19965773,FIN_19965773,FIN RUTA 19965773,-8.0124709,-79.0665501,0,
SYNTH_START_19965775,INICIO_19965775,INICIO RUTA 19965775,-8.046731600000001,-79.0857735,0,
SYNTH_END_19965775,FIN_19965775,FIN RUTA 19965775,-8.117882700000001,-79.00537270000001,0,
SYNTH_START_19965776,INICIO_19965776,INICIO RUTA 19965776,-8.117882700000001,-79.00537270000001,0,
SYNTH_END_19965776,FIN_19965776,FIN RUTA 19965776,-8.0467635,-79.0856919,0,
SYNTH_START_19965801,INICIO_19965801,INICIO RUTA 19965801,-8.046731600000001,-79.0857735,0,
SYNTH_END_19965801,FIN_19965801,FIN RUTA 19965801,-8.116497500000001,-79.0166411,0,
SYNTH_START_19965802,INICIO_19965802,INICIO RUTA 19965802,-8.046731600000001,-79.0857735,0,
SYNTH_END_19965802,FIN_19965802,FIN RUTA 19965802,-8.117882700000001,-79.00537270000001,0,
SYNTH_START_19965837,INICIO_19965837,INICIO RUTA 19965837,-8.117882700000001,-79.00537270000001,0,
SYNTH_END_19965837,FIN_19965837,FIN RUTA 19965837,-8.0467635,-79.0856919,0,
SYNTH_START_19965840,INICIO_19965840,INICIO RUTA 19965840,-8.046731600000001,-79.0857735,0,
SYNTH_END_19965840,FIN_19965840,FIN RUTA 19965840,-8.117882700000001,-79.00537270000001,0,
SYNTH_START_19965847,INICIO_19965847,INICIO RUTA 19965847,-8.046731600000001,-79.0857735,0,
SYNTH_END_19965847,FIN_19965847,FIN RUTA 19965847,-8.117882700000001,-79.00537270000001,0,
SYNTH_START_19965854,INICIO_19965854,INICIO RUTA 19965854,-8.117882700000001,-79.00537270000001,0,
SYNTH_END_19965854,FIN_19965854,FIN RUTA 19965854,-8.045490200000001,-79.0696424,0,
SYNTH_START_19965855,INICIO_19965855,INICIO RUTA 19965855,-8.103047,-79.0022986,0,
SYNTH_END_19965855,FIN_19965855,FIN RUTA 19965855,-8.013133300000002,-79.0682182,0,
SYNTH_START_19966163,INICIO_19966163,INICIO RUTA 19966163,-8.063413500000001,-79.08046250000001,0,
SYNTH_END_19966163,FIN_19966163,FIN RUTA 19966163,-8.1032458,-79.00216490000001,0,
SYNTH_START_19966193,INICIO_19966193,INICIO RUTA 19966193,-8.1385614,-79.057299,0,
SYNTH_END_19966193,FIN_19966193,FIN RUTA 19966193,-8.0598135,-79.08304530000001,0,
SYNTH_START_19966196,INICIO_19966196,INICIO RUTA 19966196,-8.0598135,-79.08304530000001,0,
SYNTH_END_19966196,FIN_19966196,FIN RUTA 19966196,-8.1385973,-79.05724380000001,0,
SYNTH_START_19966201,INICIO_19966201,INICIO RUTA 19966201,-8.063837900000001,-79.07983960000001,0,
SYNTH_END_19966201,FIN_19966201,FIN RUTA 19966201,-8.187462100000001,-78.98375180000001,0,
SYNTH_START_19966210,INICIO_19966210,INICIO RUTA 19966210,-8.1032458,-79.00216490000001,0,
SYNTH_END_19966210,FIN_19966210,FIN RUTA 19966210,-8.063837900000001,-79.07983960000001,0,
SYNTH_START_19966215,INICIO_19966215,INICIO RUTA 19966215,-8.187462100000001,-78.98375180000001,0,
SYNTH_END_19966215,FIN_19966215,FIN RUTA 19966215,-8.063837900000001,-79.07983960000001,0,
SYNTH_START_19966218,INICIO_19966218,INICIO RUTA 19966218,-8.063837900000001,-79.07983960000001,0,
SYNTH_END_19966218,FIN_19966218,FIN RUTA 19966218,-8.1032458,-79.00216490000001,0,
SYNTH_START_19966224,INICIO_19966224,INICIO RUTA 19966224,-8.1032458,-79.00216490000001,0,
SYNTH_END_19966224,FIN_19966224,FIN RUTA 19966224,-8.063837900000001,-79.07983960000001,0,
SYNTH_START_19966226,INICIO_19966226,INICIO RUTA 19966226,-8.053093,-79.0701736,0,
SYNTH_END_19966226,FIN_19966226,FIN RUTA 19966226,-8.1032458,-79.00216490000001,0,
SYNTH_START_19966253,INICIO_19966253,INICIO RUTA 19966253,-8.1032458,-79.00216490000001,0,
SYNTH_END_19966253,FIN_19966253,FIN RUTA 19966253,-8.049912800000001,-79.06851900000001,0,
SYNTH_START_19966264,INICIO_19966264,INICIO RUTA 19966264,-7.992074200000001,-79.07506500000001,0,
SYNTH_END_19966264,FIN_19966264,FIN RUTA 19966264,-8.086568000000002,-78.99399380000001,0,
SYNTH_START_19966270,INICIO_19966270,INICIO RUTA 19966270,-8.086568000000002,-78.99399380000001,0,
SYNTH_END_19966270,FIN_19966270,FIN RUTA 19966270,-7.9930206,-79.07457430000001,0,
SYNTH_START_19966288,INICIO_19966288,INICIO RUTA 19966288,-7.992074200000001,-79.07506500000001,0,
SYNTH_END_19966288,FIN_19966288,FIN RUTA 19966288,-8.08003,-79.02460210000001,0,
SYNTH_START_19966297,INICIO_19966297,INICIO RUTA 19966297,-8.08003,-79.02460210000001,0,
SYNTH_END_19966297,FIN_19966297,FIN RUTA 19966297,-7.9930206,-79.07457430000001,0,
SYNTH_START_19967351,INICIO_19967351,INICIO RUTA 19967351,-8.0600742,-79.07499360000001,0,
SYNTH_END_19967351,FIN_19967351,FIN RUTA 19967351,-8.0682863,-78.9936701,0,
SYNTH_START_19967429,INICIO_19967429,INICIO RUTA 19967429,-8.0143077,-79.0678331,0,
SYNTH_END_19967429,FIN_19967429,FIN RUTA 19967429,-8.0640975,-79.026525,0,
SYNTH_START_19967529,INICIO_19967529,INICIO RUTA 19967529,-8.0143077,-79.0678331,0,
SYNTH_END_19967529,FIN_19967529,FIN RUTA 19967529,-8.1369998,-79.0375487,0,
SYNTH_START_19967536,INICIO_19967536,INICIO RUTA 19967536,-8.1369998,-79.0375487,0,
SYNTH_END_19967536,FIN_19967536,FIN RUTA 19967536,-8.0143077,-79.0678331,0,
SYNTH_START_19967551,INICIO_19967551,INICIO RUTA 19967551,-8.1366916,-78.99222,0,
SYNTH_END_19967551,FIN_19967551,FIN RUTA 19967551,-8.1128508,-79.0198924,0,
SYNTH_START_19967562,INICIO_19967562,INICIO RUTA 19967562,-8.1128508,-79.0198924,0,
SYNTH_END_19967562,FIN_19967562,FIN RUTA 19967562,-8.1366916,-78.99222,0,
SYNTH_START_19967583,INICIO_19967583,INICIO RUTA 19967583,-8.179086400000001,-78.9916117,0,
SYNTH_END_19967583,FIN_19967583,FIN RUTA 19967583,-8.0620097,-79.0338966,0,
SYNTH_START_19967604,INICIO_19967604,INICIO RUTA 19967604,-8.061988900000001,-79.0334263,0,
SYNTH_END_19967604,FIN_19967604,FIN RUTA 19967604,-8.179086400000001,-78.9916117,0,
SYNTH_START_19967639,INICIO_19967639,INICIO RUTA 19967639,-8.179086400000001,-78.9916117,0,
SYNTH_END_19967639,FIN_19967639,FIN RUTA 19967639,-8.0620097,-79.0338966,0,
SYNTH_START_19967670,INICIO_19967670,INICIO RUTA 19967670,-8.061988900000001,-79.0334263,0,
SYNTH_END_19967670,FIN_19967670,FIN RUTA 19967670,-8.179086400000001,-78.9916117,0,
SYNTH_START_19967674,INICIO_19967674,INICIO RUTA 19967674,-8.179086400000001,-78.9916117,0,
SYNTH_END_19967674,FIN_19967674,FIN RUTA 19967674,-8.0620097,-79.0338966,0,
SYNTH_START_19967678,INICIO_19967678,INICIO RUTA 19967678,-8.061988900000001,-79.0334263,0,
SYNTH_END_19967678,FIN_19967678,FIN RUTA 19967678,-8.179086400000001,-78.9916117,0,
SYNTH_START_19967679,INICIO_19967679,INICIO RUTA 19967679,-8.061988900000001,-79.0334263,0,
SYNTH_END_19967679,FIN_19967679,FIN RUTA 19967679,-8.179086400000001,-78.9916117,0,
SYNTH_START_19968040,INICIO_19968040,INICIO RUTA 19968040,-8.179086400000001,-78.9916117,0,
SYNTH_END_19968040,FIN_19968040,FIN RUTA 19968040,-8.0711328,-79.00613320000001,0,
SYNTH_START_19968053,INICIO_19968053,INICIO RUTA 19968053,-8.072151100000001,-79.00654700000001,0,
SYNTH_END_19968053,FIN_19968053,FIN RUTA 19968053,-8.179086400000001,-78.9916117,0,
SYNTH_START_19968101,INICIO_19968101,INICIO RUTA 19968101,-8.193799,-79.0012087,0,
SYNTH_END_19968101,FIN_19968101,FIN RUTA 19968101,-8.054797200000001,-79.02332510000001,0,
SYNTH_END_19968109,FIN_19968109,FIN RUTA 19968109,-8.193799,-79.0012087,0,
SYNTH_START_19968121,INICIO_19968121,INICIO RUTA 19968121,-8.063348900000001,-79.0226286,0,
SYNTH_END_19968121,FIN_19968121,FIN RUTA 19968121,-8.1882523,-79.00663370000001,0,
SYNTH_START_19968127,INICIO_19968127,INICIO RUTA 19968127,-8.1882198,-79.00660160000001,0,
SYNTH_END_19968127,FIN_19968127,FIN RUTA 19968127,-8.063348900000001,-79.0226286,0,
SYNTH_START_19968129,INICIO_19968129,INICIO RUTA 19968129,-8.063348900000001,-79.0226286,0,
SYNTH_END_19968129,FIN_19968129,FIN RUTA 19968129,-8.1882523,-79.00663370000001,0,
SYNTH_START_19968140,INICIO_19968140,INICIO RUTA 19968140,-8.1882198,-79.00660160000001,0,
SYNTH_END_19968140,FIN_19968140,FIN RUTA 19968140,-8.063348900000001,-79.0226286,0,
SYNTH_START_19968169,INICIO_19968169,INICIO RUTA 19968169,-8.1128836,-79.0198386,0,
SYNTH_END_19968169,FIN_19968169,FIN RUTA 19968169,-8.1366916,-78.99222,0,
SYNTH_START_19968174,INICIO_19968174,INICIO RUTA 19968174,-8.0630419,-79.02153750000001,0,
SYNTH_END_19968174,FIN_19968174,FIN RUTA 19968174,-8.1882523,-79.00663370000001,0,
SYNTH_START_19968178,INICIO_19968178,INICIO RUTA 19968178,-8.1882198,-79.00660160000001,0,
SYNTH_END_19968178,FIN_19968178,FIN RUTA 19968178,-8.0630419,-79.02153750000001,0,
SYNTH_START_19968183,INICIO_19968183,INICIO RUTA 19968183,-8.0646087,-78.9939348,0,
SYNTH_END_19968183,FIN_19968183,FIN RUTA 19968183,-8.1165216,-79.0441158,0,
SYNTH_START_19968195,INICIO_19968195,INICIO RUTA 19968195,-8.1165216,-79.0441158,0,
SYNTH_END_19968195,FIN_19968195,FIN RUTA 19968195,-8.0646087,-78.9939348,0,
SYNTH_START_19968210,INICIO_19968210,INICIO RUTA 19968210,-8.0646087,-78.9939348,0,
SYNTH_END_19968210,FIN_19968210,FIN RUTA 19968210,-8.1343542,-79.0530435,0,
SYNTH_START_19968338,INICIO_19968338,INICIO RUTA 19968338,-8.1343542,-79.0530435,0,
SYNTH_END_19968338,FIN_19968338,FIN RUTA 19968338,-8.0646087,-78.9939348,0,
SYNTH_START_19968352,INICIO_19968352,INICIO RUTA 19968352,-8.0493866,-78.9947331,0,
SYNTH_END_19968352,FIN_19968352,FIN RUTA 19968352,-8.1264164,-79.0302077,0,
SYNTH_START_19968383,INICIO_19968383,INICIO RUTA 19968383,-8.1304479,-79.04523200000001,0,
SYNTH_END_19968383,FIN_19968383,FIN RUTA 19968383,-8.0484773,-79.0072801,0,
SYNTH_START_19968388,INICIO_19968388,INICIO RUTA 19968388,-8.0484773,-79.0072801,0,
SYNTH_END_19968388,FIN_19968388,FIN RUTA 19968388,-8.1304479,-79.04523200000001,0,
SYNTH_START_19970882,INICIO_19970882,INICIO RUTA 19970882,-8.080383300000001,-78.95195330000001,0,
SYNTH_END_19970882,FIN_19970882,FIN RUTA 19970882,-8.121631500000001,-79.0143501,0,
SYNTH_START_19970891,INICIO_19970891,INICIO RUTA 19970891,-8.121631500000001,-79.0143501,0,
SYNTH_END_19970891,FIN_19970891,FIN RUTA 19970891,-8.079976700000001,-78.95298190000001,0,
SYNTH_START_19970967,INICIO_19970967,INICIO RUTA 19970967,-8.0713647,-78.9499629,0,
SYNTH_END_19970967,FIN_19970967,FIN RUTA 19970967,-8.071611,-78.949926,0,
SYNTH_START_19971395,INICIO_19971395,INICIO RUTA 19971395,-8.0495085,-79.0059075,0,
SYNTH_END_19971395,FIN_19971395,FIN RUTA 19971395,-8.0495085,-79.0059075,0,
SYNTH_START_19971408,INICIO_19971408,INICIO RUTA 19971408,-8.093532000000002,-78.9963647,0,
SYNTH_END_19971408,FIN_19971408,FIN RUTA 19971408,-8.093532000000002,-78.9963647,0,
SYNTH_START_19971409,INICIO_19971409,INICIO RUTA 19971409,-8.0935094,-78.9962529,0,
SYNTH_END_19971409,FIN_19971409,FIN RUTA 19971409,-8.093607500000001,-78.9967397,0,
SYNTH_START_19971413,INICIO_19971413,INICIO RUTA 19971413,-8.057127000000001,-79.0467557,0,
SYNTH_END_19971413,FIN_19971413,FIN RUTA 19971413,-8.127987300000001,-79.0431418,0,
SYNTH_START_19971417,INICIO_19971417,INICIO RUTA 19971417,-8.1280675,-79.04318230000001,0,
SYNTH_END_19971417,FIN_19971417,FIN RUTA 19971417,-8.057127000000001,-79.0467557,0,
SYNTH_START_19971427,INICIO_19971427,INICIO RUTA 19971427,-8.0676541,-78.98026700000001,0,
SYNTH_END_19971427,FIN_19971427,FIN RUTA 19971427,-8.046367700000001,-78.99963190000001,0,
SYNTH_START_19971440,INICIO_19971440,INICIO RUTA 19971440,-8.046367700000001,-78.99963190000001,0,
SYNTH_END_19971440,FIN_19971440,FIN RUTA 19971440,-8.0676541,-78.98026700000001,0,
SYNTH_START_19971942,INICIO_19971942,INICIO RUTA 19971942,-8.0633137,-78.99095820000001,0,
SYNTH_END_19971942,FIN_19971942,FIN RUTA 19971942,-8.0633137,-78.99095820000001,0,
SYNTH_START_19971967,INICIO_19971967,INICIO RUTA 19971967,-8.1243765,-79.03843710000001,0,
SYNTH_END_19971967,FIN_19971967,FIN RUTA 19971967,-8.0633137,-78.99095820000001,0,
SYNTH_START_19971999,INICIO_19971999,INICIO RUTA 19971999,-8.0633137,-78.99095820000001,0,
SYNTH_END_19971999,FIN_19971999,FIN RUTA 19971999,-8.0633137,-78.99095820000001,0,
SYNTH_START_19972008,INICIO_19972008,INICIO RUTA 19972008,-8.1037586,-79.04276970000001,0,
SYNTH_END_19972008,FIN_19972008,FIN RUTA 19972008,-8.0553398,-79.04769030000001,0,
SYNTH_START_19972010,INICIO_19972010,INICIO RUTA 19972010,-8.0559679,-79.04994760000001,0,
SYNTH_END_19972010,FIN_19972010,FIN RUTA 19972010,-8.148302000000001,-79.0472235,0,
SYNTH_END_19972018,FIN_19972018,FIN RUTA 19972018,-8.0559679,-79.04994760000001,0,
SYNTH_START_19972027,INICIO_19972027,INICIO RUTA 19972027,-8.0601626,-79.04422310000001,0,
SYNTH_END_19972027,FIN_19972027,FIN RUTA 19972027,-8.1464025,-79.0459471,0,
SYNTH_START_19972041,INICIO_19972041,INICIO RUTA 19972041,-8.0601626,-79.04422310000001,0,
SYNTH_END_19972041,FIN_19972041,FIN RUTA 19972041,-8.1464025,-79.0459471,0,
SYNTH_START_19972045,INICIO_19972045,INICIO RUTA 19972045,-8.1464025,-79.0459471,0,
SYNTH_END_19972045,FIN_19972045,FIN RUTA 19972045,-8.0601626,-79.04422310000001,0,
SYNTH_START_19972046,INICIO_19972046,INICIO RUTA 19972046,-8.0124709,-79.0665501,0,
SYNTH_END_19972046,FIN_19972046,FIN RUTA 19972046,-8.0124709,-79.0665501,0,
SYNTH_START_19972051,INICIO_19972051,INICIO RUTA 19972051,-8.0124709,-79.0665501,0,
SYNTH_END_19972051,FIN_19972051,FIN RUTA 19972051,-8.0124709,-79.0665501,0,
SYNTH_START_19972060,INICIO_19972060,INICIO RUTA 19972060,-8.013133300000002,-79.0682182,0,
SYNTH_END_19972060,FIN_19972060,FIN RUTA 19972060,-8.1031136,-79.00239250000001,0,
SYNTH_START_19972065,INICIO_19972065,INICIO RUTA 19972065,-8.0696986,-78.99037530000001,0,
SYNTH_END_19972065,FIN_19972065,FIN RUTA 19972065,-8.0600742,-79.07499360000001,0,
SYNTH_START_19972072,INICIO_19972072,INICIO RUTA 19972072,-8.0640975,-79.026525,0,
SYNTH_END_19972072,FIN_19972072,FIN RUTA 19972072,-8.0143077,-79.0678331,0,
SYNTH_START_19972081,INICIO_19972081,INICIO RUTA 19972081,-8.0879214,-78.96298150000001,0,
SYNTH_END_19972081,FIN_19972081,FIN RUTA 19972081,-8.128537900000001,-79.02093810000001,0,
SYNTH_START_19972086,INICIO_19972086,INICIO RUTA 19972086,-8.128537900000001,-79.02093810000001,0,
SYNTH_END_19972086,FIN_19972086,FIN RUTA 19972086,-8.0879214,-78.96298150000001,0,
SYNTH_START_19972095,INICIO_19972095,INICIO RUTA 19972095,-8.0879214,-78.96298150000001,0,
SYNTH_END_19972095,FIN_19972095,FIN RUTA 19972095,-8.1230626,-79.0229815,0,
SYNTH_START_19972103,INICIO_19972103,INICIO RUTA 19972103,-8.1366916,-78.99222,0,
SYNTH_END_19972103,FIN_19972103,FIN RUTA 19972103,-8.1128836,-79.0198386,0,
SYNTH_START_19972121,INICIO_19972121,INICIO RUTA 19972121,-8.0676541,-78.98026700000001,0,
SYNTH_END_19972121,FIN_19972121,FIN RUTA 19972121,-8.046367700000001,-78.99963190000001,0,
SYNTH_START_19972123,INICIO_19972123,INICIO RUTA 19972123,-8.1230626,-79.0229815,0,
SYNTH_END_19972123,FIN_19972123,FIN RUTA 19972123,-8.0879214,-78.96298150000001,0,
SYNTH_START_19972128,INICIO_19972128,INICIO RUTA 19972128,-8.046367700000001,-78.99963190000001,0,
SYNTH_END_19972128,FIN_19972128,FIN RUTA 19972128,-8.0676541,-78.98026700000001,0,
SYNTH_START_19972130,INICIO_19972130,INICIO RUTA 19972130,-8.073384200000001,-79.1193472,0,
SYNTH_END_19972130,FIN_19972130,FIN RUTA 19972130,-8.1199714,-79.0087154,0,
SYNTH_START_19972154,INICIO_19972154,INICIO RUTA 19972154,-8.120065400000001,-79.008786,0,
SYNTH_END_19972154,FIN_19972154,FIN RUTA 19972154,-8.073384200000001,-79.1193472,0,
SYNTH_START_19972155,INICIO_19972155,INICIO RUTA 19972155,-8.0676541,-78.98026700000001,0,
SYNTH_END_19972155,FIN_19972155,FIN RUTA 19972155,-8.046367700000001,-78.99963190000001,0,
SYNTH_START_19972157,INICIO_19972157,INICIO RUTA 19972157,-8.0477004,-79.0001258,0,
SYNTH_END_19972157,FIN_19972157,FIN RUTA 19972157,-8.0676541,-78.98026700000001,0,
SYNTH_START_19972158,INICIO_19972158,INICIO RUTA 19972158,-8.0713647,-78.9499629,0,
SYNTH_END_19972158,FIN_19972158,FIN RUTA 19972158,-8.071611,-78.949926,0,
SYNTH_START_19972163,INICIO_19972163,INICIO RUTA 19972163,-8.065328800000001,-79.1092759,0,
SYNTH_END_19972163,FIN_19972163,FIN RUTA 19972163,-8.106978000000002,-78.98612960000001,0,
SYNTH_START_19972175,INICIO_19972175,INICIO RUTA 19972175,-8.0868005,-79.11568340000001,0,
SYNTH_END_19972175,FIN_19972175,FIN RUTA 19972175,-8.1069992,-78.9860196,0,
SYNTH_START_19972176,INICIO_19972176,INICIO RUTA 19972176,-8.106978000000002,-78.98612960000001,0,
SYNTH_END_19972176,FIN_19972176,FIN RUTA 19972176,-8.0660298,-79.1099423,0,
SYNTH_START_19972187,INICIO_19972187,INICIO RUTA 19972187,-8.106978000000002,-78.98612960000001,0,
SYNTH_END_19972187,FIN_19972187,FIN RUTA 19972187,-8.0868005,-79.11568340000001,0,
SYNTH_START_19972190,INICIO_19972190,INICIO RUTA 19972190,-8.065328800000001,-79.1092759,0,
SYNTH_END_19972190,FIN_19972190,FIN RUTA 19972190,-8.106978000000002,-78.98612960000001,0,
SYNTH_END_19972191,FIN_19972191,FIN RUTA 19972191,-8.063348900000001,-79.0226286,0,
SYNTH_START_19972195,INICIO_19972195,INICIO RUTA 19972195,-8.063348900000001,-79.0226286,0,
SYNTH_END_19972195,FIN_19972195,FIN RUTA 19972195,-8.187106100000001,-79.0077263,0,
SYNTH_START_19972196,INICIO_19972196,INICIO RUTA 19972196,-8.106978000000002,-78.98612960000001,0,
SYNTH_END_19972196,FIN_19972196,FIN RUTA 19972196,-8.0660298,-79.1099423,0,
SYNTH_START_19972422,INICIO_19972422,INICIO RUTA 19972422,-8.0868005,-79.11568340000001,0,
SYNTH_END_19972422,FIN_19972422,FIN RUTA 19972422,-8.1069992,-78.9860196,0,
SYNTH_START_19972433,INICIO_19972433,INICIO RUTA 19972433,-8.106978000000002,-78.98612960000001,0,
SYNTH_END_19972433,FIN_19972433,FIN RUTA 19972433,-8.0868005,-79.11568340000001,0,
SYNTH_START_19972458,INICIO_19972458,INICIO RUTA 19972458,-8.0622518,-79.03201820000001,0,
SYNTH_END_19972458,FIN_19972458,FIN RUTA 19972458,-8.178582500000001,-78.99226650000001,0,
SYNTH_START_19972461,INICIO_19972461,INICIO RUTA 19972461,-7.996270300000001,-78.68498860000001,0,
SYNTH_END_19972461,FIN_19972461,FIN RUTA 19972461,-8.0889143,-79.02275110000001,0,
SYNTH_START_19972466,INICIO_19972466,INICIO RUTA 19972466,-8.178582500000001,-78.99226650000001,0,
SYNTH_END_19972466,FIN_19972466,FIN RUTA 19972466,-8.0622518,-79.03201820000001,0,
SYNTH_START_19972467,INICIO_19972467,INICIO RUTA 19972467,-8.0622518,-79.03201820000001,0,
SYNTH_END_19972467,FIN_19972467,FIN RUTA 19972467,-8.178582500000001,-78.99226650000001,0,
SYNTH_START_19972470,INICIO_19972470,INICIO RUTA 19972470,-8.0889143,-79.02275110000001,0,
SYNTH_END_19972470,FIN_19972470,FIN RUTA 19972470,-7.995942200000001,-78.6895343,0,
SYNTH_START_19972472,INICIO_19972472,INICIO RUTA 19972472,-8.178582500000001,-78.99226650000001,0,
SYNTH_END_19972472,FIN_19972472,FIN RUTA 19972472,-8.0622518,-79.03201820000001,0,
SYNTH_START_19972473,INICIO_19972473,INICIO RUTA 19972473,-7.928854600000001,-78.72703340000001,0,
SYNTH_END_19972473,FIN_19972473,FIN RUTA 19972473,-8.1013517,-79.0182168,0,
SYNTH_START_19972474,INICIO_19972474,INICIO RUTA 19972474,-8.072151100000001,-79.00654700000001,0,
SYNTH_START_19972475,INICIO_19972475,INICIO RUTA 19972475,-8.178582500000001,-78.99226650000001,0,
SYNTH_END_19972475,FIN_19972475,FIN RUTA 19972475,-8.072151100000001,-79.00654700000001,0,
SYNTH_START_19972478,INICIO_19972478,INICIO RUTA 19972478,-8.0852976,-78.96063190000001,0,
SYNTH_END_19972478,FIN_19972478,FIN RUTA 19972478,-8.129539300000001,-79.0206266,0,
SYNTH_START_19972479,INICIO_19972479,INICIO RUTA 19972479,-8.101120600000002,-79.0181548,0,
SYNTH_END_19972479,FIN_19972479,FIN RUTA 19972479,-7.928854600000001,-78.72703340000001,0,
SYNTH_START_19972496,INICIO_19972496,INICIO RUTA 19972496,-7.852793000000001,-78.75241050000001,0,
SYNTH_END_19972496,FIN_19972496,FIN RUTA 19972496,-8.097654400000001,-79.01628810000001,0,
SYNTH_START_19972502,INICIO_19972502,INICIO RUTA 19972502,-8.101120600000002,-79.0181548,0,
SYNTH_END_19972502,FIN_19972502,FIN RUTA 19972502,-7.8727556000000005,-78.7672091,0,
SYNTH_START_19972504,INICIO_19972504,INICIO RUTA 19972504,-8.134286300000001,-79.05312140000001,0,
SYNTH_END_19972504,FIN_19972504,FIN RUTA 19972504,-8.087465400000001,-78.9625956,0,
SYNTH_START_19972505,INICIO_19972505,INICIO RUTA 19972505,-8.087465400000001,-78.9625956,0,
SYNTH_END_19972505,FIN_19972505,FIN RUTA 19972505,-8.134286300000001,-79.05312140000001,0,
SYNTH_START_19972508,INICIO_19972508,INICIO RUTA 19972508,-8.021033300000001,-78.79602940000001,0,
SYNTH_END_19972508,FIN_19972508,FIN RUTA 19972508,-8.1027749,-79.0110643,0,
SYNTH_START_19972509,INICIO_19972509,INICIO RUTA 19972509,-8.131766500000001,-79.03364590000001,0,
SYNTH_END_19972509,FIN_19972509,FIN RUTA 19972509,-8.087465400000001,-78.9625956,0,
SYNTH_START_19972510,INICIO_19972510,INICIO RUTA 19972510,-8.087465400000001,-78.9625956,0,
SYNTH_END_19972510,FIN_19972510,FIN RUTA 19972510,-8.1316825,-79.03357860000001,0,
SYNTH_START_19972512,INICIO_19972512,INICIO RUTA 19972512,-8.085547700000001,-79.0433957,0,
SYNTH_END_19972512,FIN_19972512,FIN RUTA 19972512,-8.0843346,-79.0439431,0,
SYNTH_START_19972515,INICIO_19972515,INICIO RUTA 19972515,-8.0040358,-78.69167270000001,0,
SYNTH_END_19972515,FIN_19972515,FIN RUTA 19972515,-8.1027749,-79.0110643,0,
SYNTH_START_19972516,INICIO_19972516,INICIO RUTA 19972516,-8.1027749,-79.0110643,0,
SYNTH_END_19972516,FIN_19972516,FIN RUTA 19972516,-8.0040358,-78.69167270000001,0,
SYNTH_START_19972901,INICIO_19972901,INICIO RUTA 19972901,-8.064982200000001,-79.01691310000001,0,
SYNTH_END_19972901,FIN_19972901,FIN RUTA 19972901,-8.064982200000001,-79.01691310000001,0,
SYNTH_START_19972938,INICIO_19972938,INICIO RUTA 19972938,-8.061163,-78.9898539,0,
SYNTH_END_19972938,FIN_19972938,FIN RUTA 19972938,-8.061163,-78.9898539,0,
SYNTH_START_19973156,INICIO_19973156,INICIO RUTA 19973156,-8.064982200000001,-79.01691310000001,0,
SYNTH_END_19973156,FIN_19973156,FIN RUTA 19973156,-8.064982200000001,-79.01691310000001,0,
SYNTH_START_19973224,INICIO_19973224,INICIO RUTA 19973224,-8.0540582,-79.07798220000001,0,
SYNTH_END_19973224,FIN_19973224,FIN RUTA 19973224,-8.089517500000001,-78.9950362,0,
SYNTH_START_19973251,INICIO_19973251,INICIO RUTA 19973251,-8.0540582,-79.07798220000001,0,
SYNTH_END_19973251,FIN_19973251,FIN RUTA 19973251,-8.089517500000001,-78.9950362,0,
SYNTH_START_19973922,INICIO_19973922,INICIO RUTA 19973922,-8.089498200000001,-78.99511100000001,0,
SYNTH_END_19973922,FIN_19973922,FIN RUTA 19973922,-8.0540582,-79.07798220000001,0,
SYNTH_START_19973932,INICIO_19973932,INICIO RUTA 19973932,-8.089498200000001,-78.99511100000001,0,
SYNTH_END_19973932,FIN_19973932,FIN RUTA 19973932,-8.0540582,-79.07798220000001,0,
SYNTH_START_19973941,INICIO_19973941,INICIO RUTA 19973941,-8.0540582,-79.07798220000001,0,
SYNTH_END_19973941,FIN_19973941,FIN RUTA 19973941,-8.0540582,-79.07798220000001,0,
SYNTH_START_19973946,INICIO_19973946,INICIO RUTA 19973946,-8.1027749,-79.0110643,0,
SYNTH_END_19973946,FIN_19973946,FIN RUTA 19973946,-8.021033300000001,-78.79602940000001,0,
SYNTH_START_19973949,INICIO_19973949,INICIO RUTA 19973949,-8.0613039,-78.7382798,0,
SYNTH_END_19973949,FIN_19973949,FIN RUTA 19973949,-8.1027749,-79.0110643,0,
SYNTH_START_19973958,INICIO_19973958,INICIO RUTA 19973958,-8.1027749,-79.0110643,0,
SYNTH_END_19973958,FIN_19973958,FIN RUTA 19973958,-8.0613039,-78.7382798,0,
SYNTH_START_19975974,INICIO_19975974,INICIO RUTA 19975974,-8.090220700000001,-79.1155744,0,
SYNTH_END_19975974,FIN_19975974,FIN RUTA 19975974,-8.090220700000001,-79.1155744,0,
SYNTH_START_19976195,INICIO_19976195,INICIO RUTA 19976195,-8.0637021,-79.0225101,0,
SYNTH_END_19976195,FIN_19976195,FIN RUTA 19976195,-8.219117,-78.9703683,0,
SYNTH_START_19976301,INICIO_19976301,INICIO RUTA 19976301,-8.0633137,-78.99095820000001,0,
SYNTH_END_19976301,FIN_19976301,FIN RUTA 19976301,-8.0633137,-78.99095820000001,0,
SYNTH_START_19976312,INICIO_19976312,INICIO RUTA 19976312,-8.1302637,-79.0209164,0,
SYNTH_END_19976312,FIN_19976312,FIN RUTA 19976312,-8.0660298,-79.1099423,0,
SYNTH_START_19976337,INICIO_19976337,INICIO RUTA 19976337,-8.064982200000001,-79.01691310000001,0,
SYNTH_END_19976337,FIN_19976337,FIN RUTA 19976337,-8.064982200000001,-79.01691310000001,0,
SYNTH_START_19977991,INICIO_19977991,INICIO RUTA 19977991,-8.0622518,-79.03201820000001,0,
SYNTH_END_19977991,FIN_19977991,FIN RUTA 19977991,-8.178582500000001,-78.99226650000001,0,
SYNTH_START_19988569,INICIO_19988569,INICIO RUTA 19988569,-8.1264164,-79.0302077,0,
SYNTH_END_19988569,FIN_19988569,FIN RUTA 19988569,-8.0494842,-78.9942687,0,
SYNTH_START_19988589,INICIO_19988589,INICIO RUTA 19988589,-8.128537900000001,-79.02093810000001,0,
SYNTH_END_19988589,FIN_19988589,FIN RUTA 19988589,-8.0852976,-78.96063190000001,0,
SYNTH_START_19988601,INICIO_19988601,INICIO RUTA 19988601,-8.021033300000001,-78.79602940000001,0,
SYNTH_END_19988601,FIN_19988601,FIN RUTA 19988601,-8.1027749,-79.0110643,0,
SYNTH_START_19988606,INICIO_19988606,INICIO RUTA 19988606,-8.1027749,-79.0110643,0,
SYNTH_END_19988606,FIN_19988606,FIN RUTA 19988606,-8.021033300000001,-78.79602940000001,0,
SYNTH_START_19988678,INICIO_19988678,INICIO RUTA 19988678,-8.0613039,-78.7382798,0,
SYNTH_END_19988678,FIN_19988678,FIN RUTA 19988678,-8.1027749,-79.0110643,0,
SYNTH_START_19988688,INICIO_19988688,INICIO RUTA 19988688,-8.1027749,-79.0110643,0,
SYNTH_END_19988688,FIN_19988688,FIN RUTA 19988688,-8.0613039,-78.7382798,0,
SYNTH_START_19988714,INICIO_19988714,INICIO RUTA 19988714,-8.0040358,-78.69167270000001,0,
SYNTH_END_19988714,FIN_19988714,FIN RUTA 19988714,-8.1027749,-79.0110643,0,
SYNTH_START_19988728,INICIO_19988728,INICIO RUTA 19988728,-8.1027749,-79.0110643,0,
SYNTH_END_19988728,FIN_19988728,FIN RUTA 19988728,-8.0040358,-78.69167270000001,0,
SYNTH_START_19988797,INICIO_19988797,INICIO RUTA 19988797,-8.065328800000001,-79.1092759,0,
SYNTH_END_19988797,FIN_19988797,FIN RUTA 19988797,-8.106978000000002,-78.98612960000001,0,
SYNTH_START_19988815,INICIO_19988815,INICIO RUTA 19988815,-8.106978000000002,-78.98612960000001,0,
SYNTH_END_19988815,FIN_19988815,FIN RUTA 19988815,-8.0660298,-79.1099423,0,
SYNTH_START_19990111,INICIO_19990111,INICIO RUTA 19990111,-8.178582500000001,-78.99226650000001,0,
SYNTH_END_19990111,FIN_19990111,FIN RUTA 19990111,-8.0611029,-79.0286732,0,
SYNTH_START_19990115,INICIO_19990115,INICIO RUTA 19990115,-8.0611029,-79.0286732,0,
SYNTH_END_19990115,FIN_19990115,FIN RUTA 19990115,-8.179086400000001,-78.9916117,0,
SYNTH_START_19990157,INICIO_19990157,INICIO RUTA 19990157,-8.063348900000001,-79.0226286,0,
SYNTH_END_19990157,FIN_19990157,FIN RUTA 19990157,-8.190389000000001,-79.00461580000001,0,
SYNTH_END_19990165,FIN_19990165,FIN RUTA 19990165,-8.063348900000001,-79.0226286,0,
SYNTH_START_19990939,INICIO_19990939,INICIO RUTA 19990939,-8.101120600000002,-79.0181548,0,
SYNTH_END_19990939,FIN_19990939,FIN RUTA 19990939,-7.8555543000000005,-78.8053014,0,
SYNTH_START_19991778,INICIO_19991778,INICIO RUTA 19991778,-7.855543100000001,-78.8072276,0,
SYNTH_END_19991778,FIN_19991778,FIN RUTA 19991778,-8.097654400000001,-79.01628810000001,0,
